"Country.Code","City","Location","Latitude","Longitude","Pollutant","Source.Name","Unit","Value","Last.Updated","Country.Label"
"FR","NICE","NICE PROMENADE",43.6892899998647,7.2420740002946,"PM2.5","eea","µg/m³",4.8,"2024-09-16T08:00:00+02:00","France"
"FR","ANNECY","LOVERCHY",45.8952799999222,6.11833300032625,"NO2","eea","µg/m³",19.1,"2024-09-18T23:00:00+02:00","France"
"FR","SAINT-ÉTIENNE","ST ETIENNE BD URBAIN",45.4479800001969,4.38876400007321,"PM10","eea","µg/m³",14.1,"2024-09-16T08:00:00+02:00","France"
"FR","VAL-DE-REUIL","Base loisirs Poses",49.3048700002814,1.2143670002142,"O3","eea","µg/m³",84.8,"2024-09-18T23:00:00+02:00","France"
"FR","LES ROCHES-DE-CONDRIEU","ROCHES DE CONDRIEU",45.454516999977,4.76652799989327,"NO2","eea","µg/m³",12.6,"2024-09-18T23:00:00+02:00","France"
"FR","BÉTHUNE","Bethune Stade",50.5353849998623,2.63569199974933,"O3","eea","µg/m³",54.2,"2024-09-18T23:00:00+02:00","France"
"FR","TERNAY","TERNAY",45.6018999997678,4.80220000011266,"PM10","eea","µg/m³",19,"2024-02-07T11:00:00+01:00","France"
"FR","BAYONNE","SAINT-CROUTS",43.4798199999506,-1.48915700043803,"NO2","eea","µg/m³",18.2,"2024-09-18T23:00:00+02:00","France"
"FR","JOUÉ-LÈS-TOURS","Joué lès Tours",47.3441400000065,0.653778000432585,"NO","eea","µg/m³",2.4,"2024-03-11T10:00:00+01:00","France"
"FR","ROUEN","Espace du Palais",49.4423560001848,1.0937889998627,"NO2","eea","µg/m³",14.3,"2024-09-18T23:00:00+02:00","France"
"FR","SAINT-PIERRE","Ligne Paradis",-21.3128950000391,55.4741939995754,"O3","eea","µg/m³",28.5,"2024-09-18T23:00:00+02:00","France"
"FR","CHAMBÉRY","PASTEUR",45.564719999865,5.92833299988358,"NO","eea","µg/m³",27.9,"2024-03-11T10:00:00+01:00","France"
"FR","SOTTEVILLE-LÈS-ROUEN","Centre Hospitalier",49.4005000001846,1.09904199999622,"PM10","eea","µg/m³",51.2,"2024-09-18T23:00:00+02:00","France"
"FR","FRÉMAINVILLE","Zone Rurale NO",49.0630870001199,1.86638099958461,"PM10","eea","µg/m³",3.4,"2024-09-16T08:00:00+02:00","France"
"FR","CHAMBÉRY","Chambéry Trafic",45.5694299999296,5.93298599996747,"NO","eea","µg/m³",39.4,"2024-03-11T10:00:00+01:00","France"
"FR","LA PETITE-PIERRE","Vosges du Nord",48.8573100002683,7.31417500024352,"NO2","eea","µg/m³",2.3,"2020-02-11T11:00:00+01:00","France"
"FR","SAINT-GERMAIN-SUR-RHÔNE","St Germain/Rhône",46.0722240002064,5.82083300042506,"NO2","eea","µg/m³",7.3,"2024-09-18T23:00:00+02:00","France"
"FR","MACOURIA","Matiti",5.03460199976914,-52.5637929997931,"NO","eea","µg/m³",0.5,"2024-03-11T10:00:00+01:00","France"
"FR","SAINT-BRIEUC","Saint Brieuc Balzac",48.5135100002817,-2.74952999981289,"PM10","eea","µg/m³",8.9,"2024-09-16T08:00:00+02:00","France"
"FR","ÉVREUX","Evreux Centre",49.0213399997733,1.14831899956664,"O3","eea","µg/m³",81,"2024-09-18T23:00:00+02:00","France"
"FR","Canton de Genève","Thônex-Foron",46.1955999993861,6.21125000009234,"PM10","eea","µg/m³",8.75,"2024-09-18T23:00:00+02:00","France"
"FR","SAINT-BRISSON","Morvan",47.2747599997626,4.09947599964745,"O3","eea","µg/m³",30.1,"2024-09-18T23:00:00+02:00","France"
"FR","FORT-DE-FRANCE","Fort-de-France - Hôtel de ville",14.6074439996039,-61.0697800003841,"PM2.5","eea","µg/m³",5.2,"2024-09-18T23:00:00+02:00","France"
"FR","BOURGOIN-JALLIEU","Bourgoin-Jallieu",45.6082199999151,5.27087200021089,"NO","eea","µg/m³",47.4,"2024-03-11T10:00:00+01:00","France"
"FR","BIARRITZ","Biarritz-hippodrome",43.4702379999568,-1.55387600021659,"PM2.5","eea","µg/m³",2.2,"2024-09-16T08:00:00+02:00","France"
"FR","DIJON","Dijon Péjoces",47.3073699998269,5.06588099964679,"O3","eea","µg/m³",53,"2024-09-18T23:00:00+02:00","France"
"FR","LYON 3E ARRONDISSEMENT","LYON Centre",45.7577319999332,4.85421400016547,"NO","eea","µg/m³",17.4,"2024-03-11T10:00:00+01:00","France"
"FR","LUCCIANA","BASTIA LA MARANA",42.5358300001085,9.47597199989833,"O3","eea","µg/m³",19,"2024-09-18T23:00:00+02:00","France"
"FR","MELUN","MELUN",48.5413900000572,2.66138900015433,"NO2","eea","µg/m³",8.7,"2024-09-17T23:00:00+02:00","France"
"FR","DENAIN","Denain Villars",50.3227600000871,3.39593000027307,"SO2","eea","µg/m³",3.33,"2017-07-18T22:00:00+02:00","France"
"FR","PARIS 1ER ARRONDISSEMENT","PARIS 1er Les Halles",48.8621199998727,2.34461599976858,"PM10","eea","µg/m³",10.3,"2024-09-16T08:00:00+02:00","France"
"FR","BELLEVILLE-SUR-MEUSE","Belleville sur Meuse",49.1677799998708,5.38746100010222,"NO2","eea","µg/m³",13.7,"2024-09-17T23:00:00+02:00","France"
"FR","AUBERVILLIERS","AUBERVILLIERS",48.9038999997566,2.38470000004744,"SO2","eea","µg/m³",0,"2021-01-04T14:00:00+01:00","France"
"FR","AUBERVILLIERS","AUBERVILLIERS",48.9038999997566,2.38470000004744,"CO","eea","µg/m³",210,"2021-01-04T14:00:00+01:00","France"
"FR","SAINT-DENIS","SAINT-DENIS",48.9372200002586,2.36166700032988,"NO2","eea","µg/m³",12.3,"2024-09-17T23:00:00+02:00","France"
"FR","MARIGNANE","Marignane",43.4165300001598,5.2222810000055,"PM2.5","eea","µg/m³",1.7,"2024-09-17T23:00:00+02:00","France"
"FR","MARIGNANE","Marignane",43.4165300001598,5.2222810000055,"NO","eea","µg/m³",48.5,"2024-03-11T08:00:00+01:00","France"
"FR","HAGUENAU","Haguenau-Place marché aux bestiaux",48.8183500000267,7.78640900010634,"PM2.5","eea","µg/m³",10.8,"2024-09-16T08:00:00+02:00","France"
"FR","VERSAILLES","VERSAILLES",48.7991680000162,2.13055599976146,"NO","eea","µg/m³",9.3,"2024-03-11T10:00:00+01:00","France"
"FR","LES MAZURES","REVIN",49.9077799999888,4.63000000024383,"PM10","eea","µg/m³",5.5,"2024-09-16T23:00:00+02:00","France"
"FR","TROYES","Troyes La Tour",48.3016660002666,4.07694400024531,"SO2","eea","µg/m³",2.3,"2019-09-30T12:00:00+02:00","France"
"FR","TOULOUSE","Toulouse Berthelot",43.5873450000132,1.44400300032376,"NO","eea","µg/m³",1.3,"2024-03-11T10:00:00+01:00","France"
"FR","NEUILLY-SAINT-FRONT","Neuilly-Saint-Front",49.1749299998364,3.26081899955954,"O3","eea","µg/m³",54.3,"2024-09-16T23:00:00+02:00","France"
"FR","NEUILLY-SAINT-FRONT","Neuilly-Saint-Front",49.1749299998364,3.26081899955954,"PM10","eea","µg/m³",7.3,"2024-09-16T23:00:00+02:00","France"
"FR","REIMS","Jean d Aulan",49.2241669997297,4.02055599976787,"SO2","eea","µg/m³",1,"2024-09-16T14:00:00+02:00","France"
"FR","SAINT-OMER","St Omer Ribot",50.7482300002354,2.25977999995667,"NO","eea","µg/m³",2.1,"2024-03-11T10:00:00+01:00","France"
"FR","SAINT-DIZIER","St DIZIER L. Michel",48.6458359997777,4.96611099961485,"SO2","eea","µg/m³",5.1,"2019-09-20T10:00:00+02:00","France"
"FR","TOULOUSE","Toulouse Mazades",43.6236080001413,1.43853099990713,"O3","eea","µg/m³",60.4,"2021-05-17T05:00:00+02:00","France"
"FR","DUNKERQUE","St Pol mer - cheminots",51.0327599998369,2.33235799993157,"NO2","eea","µg/m³",1.5,"2024-09-16T23:00:00+02:00","France"
"FR","TOULOUSE","ECOLE M.JACQUIER",43.5756949998691,1.41806400006942,"PM2.5","eea","µg/m³",5.4,"2024-09-16T23:00:00+02:00","France"
"FR","LE MANS","SOURCES",47.9710660000466,0.221422000085985,"NO2","eea","µg/m³",4.5,"2024-09-16T23:00:00+02:00","France"
"FR","SAINT-DENIS-D'ANJOU","SAINT-DENIS D'ANJOU",47.7877299999136,-0.444044000271216,"NO","eea","µg/m³",3.4,"2024-03-11T07:00:00+01:00","France"
"FR","CALAIS","Calais Berthelot",50.9472900000261,1.84308000007845,"NO2","eea","µg/m³",13.3,"2024-09-16T23:00:00+02:00","France"
"FR","CAPPELLE-LA-GRANDE","Cappelle la Grande",50.9959400001875,2.36627000018506,"O3","eea","µg/m³",69.6,"2024-09-16T23:00:00+02:00","France"
"FR","BÉLESTA-EN-LAURAGAIS","BELESTA EN LAURAGAIS",43.4413900001802,1.82194399969583,"O3","eea","µg/m³",63.1,"2024-09-16T23:00:00+02:00","France"
"FR","LA TARDIÈRE","LA TARDIERE",46.6566850000422,-0.743680999706857,"O3","eea","µg/m³",75.6,"2024-09-16T23:00:00+02:00","France"
"FR","CLERMONT-FERRAND","Beaulieu",45.7690000000847,3.1550000004242,"PM10","eea","µg/m³",6.5,"2024-09-16T08:00:00+02:00","France"
"FR","MONTLUÇON","Montluçon",46.3407199997582,2.59394499958895,"O3","eea","µg/m³",78,"2024-09-16T14:00:00+02:00","France"
"FR","LE HAVRE","Le Havre Massillon",49.4983000002172,0.142706000420907,"NO2","eea","µg/m³",4.3,"2024-09-16T14:00:00+02:00","France"
"FR","PARAY-LE-FRÉSIL","Paray le Fresil",46.6526679998459,3.60066700039397,"PM2.5","eea","µg/m³",4.5,"2024-09-16T14:00:00+02:00","France"
"FR","LE HAVRE","Le Havre ville-haute",49.5146869998804,0.100645000441171,"SO2","eea","µg/m³",0.5,"2024-09-16T14:00:00+02:00","France"
"FR","LUNEL-VIEL","Lunel Viel",43.6757999997234,4.08838000027485,"NO2","eea","µg/m³",30.3,"2024-09-16T14:00:00+02:00","France"
"FR","FLÉVILLE-DEVANT-NANCY","Fléville",48.6215020000024,6.19492199960431,"PM10","eea","µg/m³",15.2,"2024-09-16T08:00:00+02:00","France"
"FR","ÉPINAL","Epinal",48.1727800002807,6.45281099995298,"CO","eea","µg/m³",108,"2019-08-09T13:00:00+02:00","France"
"FR","ATMO NOUVELLE-AQUITAINE","NET-FR058A",43.310833,-0.391111,"NO2","EEA France","µg/m³",24.6,"2024-03-04T08:00:00+01:00","France"
"FR","ATMO OCCITANIE","NET-FR068A",43.096943,-0.038889,"PM2.5","EEA France","µg/m³",10.6,"2024-01-29T18:00:00+01:00","France"
"FR","ATMO NOUVELLE-AQUITAINE","NET-FR058A",46.17,1.87,"O3","EEA France","µg/m³",2.8,"2024-03-04T08:00:00+01:00","France"
"FR","ATMO NOUVELLE-AQUITAINE","NET-FR058A",44.84139,-0.65,"PM10","EEA France","µg/m³",6.9,"2024-03-04T07:00:00+01:00","France"
"FR","ATMO OCCITANIE","NET-FR068A",43.63028,0.179722,"NO2","EEA France","µg/m³",0.3,"2024-03-01T10:00:00+01:00","France"
"FR","ATMO GRAND EST","NET-FR075A",48.575985,7.727478,"PM10","EEA France","µg/m³",25.6,"2024-02-05T22:00:00+01:00","France"
"FR","Eure-et-Loir","FR34046",48.7314125600919,1.36388514642015,"PM10","EEA France","µg/m³",11.6,"2024-01-29T18:00:00+01:00","France"
"FR","Morbihan","FR19033",47.648889066211,-2.76389155041474,"PM10","EEA France","µg/m³",23,"2024-01-29T18:00:00+01:00","France"
"FR","Saône-et-Loire","FR32001",46.7824722190452,4.84726435734473,"NO","EEA France","µg/m³",43.2,"2024-01-29T18:00:00+01:00","France"
"FR","Nord","FR10029",50.9959079994751,2.365994,"SO2","EEA France","µg/m³",-1,"2024-01-29T18:00:00+01:00","France"
"FR","Meurthe-et-Moselle","FR30036",48.6963231696882,6.14612046034746,"PM2.5","EEA France","µg/m³",11.1,"2024-01-29T18:00:00+01:00","France"
"FR","Puy-de-Dôme","FR07034",45.7757153069085,3.09625023923328,"NO","EEA France","µg/m³",35.1,"2023-12-15T11:00:00+01:00","France"
"FR","","FR34057",46.9429682344805,2.00326104989222,"PM2.5","EEA France","µg/m³",2.6,"2021-12-29T21:00:00+01:00","France"
"FR","","FR21035",49.6363812210033,-1.62666931648363,"PM10","EEA France","µg/m³",13.8,"2021-12-15T08:00:00+01:00","France"
"FR","","FR01005",49.3247183840929,6.07610576710319,"PM10","EEA France","µg/m³",19.9,"2021-01-01T01:00:00+01:00","France"
"FR","","FR09019",46.3295859994638,-0.458889,"PM2.5","EEA France","µg/m³",17.1,"2020-01-22T07:00:00+01:00","France"
"FR","","Serv Tech Guipry",47.8319337214448,-1.83632712064428,"PM2.5","EEA France","µg/m³",13.6,"2019-12-03T14:00:00+01:00","France"
"FR","","FR31032",44.1922219994633,0.623889,"O3","EEA France","µg/m³",1.1,"2018-12-27T08:00:00+01:00","France"
"FR","","StMalo Courtoisville",48.654741414049,-1.99613740968915,"O3","EEA France","µg/m³",50.78,"2018-06-21T08:00:00+02:00","France"
"FR","","FR39014",14.6661999997358,-61.1501,"PM10","EEA France","µg/m³",9.85,"2018-04-25T06:00:00+02:00","France"
"FR","","FR10034",51.0112059994752,2.293056,"NO2","EEA France","µg/m³",5.13,"2018-04-25T02:00:00+02:00","France"
"FR","","FR06009",50.1752779994721,3.234167,"PM10","EEA France","µg/m³",10.3,"2018-04-25T02:00:00+02:00","France"
"FR","","FR34024",47.344499999465,0.653322,"PM2.5","EEA France","µg/m³",8.7,"2018-04-25T02:00:00+02:00","France"
"FR","","FR37002",16.2386999997104,-61.5381,"NO2","EEA France","µg/m³",11.07,"2018-01-26T16:00:00+01:00","France"
"FR","","Escautpont",50.4202708576586,3.55181286926881,"PM10","EEA France","µg/m³",19.2,"2017-07-18T20:00:00+02:00","France"
"FR","","Armentieres Centre",50.6872089262531,2.88004371665139,"O3","EEA France","µg/m³",0.95,"2016-12-05T02:00:00+01:00","France"
"FR","","Home",45.271894982689,5.6790270589692,"PM1","airgradient","µg/m³",1.103174607,"2024-09-19T10:00:00+02:00","France"
"FR","PANTIN","RN2-PANTIN",48.9022199998218,2.39083299971474,"NO2","eea","µg/m³",48.3,"2024-09-18T23:00:00+02:00","France"
"FR","MONTOIR-DE-BRETAGNE","CAME",47.3210799999773,-2.12732200005993,"SO2","eea","µg/m³",0.5,"2024-09-16T23:00:00+02:00","France"
"FR","BRIVE-LA-GAILLARDE","BRIVE - Dalton",45.1587370002402,1.53725900002356,"O3","eea","µg/m³",35.1,"2024-09-18T23:00:00+02:00","France"
"FR","BEUIL","CIANS",44.0946899996974,6.9889779997719,"O3","eea","µg/m³",82.6,"2024-09-18T23:00:00+02:00","France"
"FR","BORDEAUX","GRAND PARC",44.8612099998848,-0.580370000254293,"O3","eea","µg/m³",33.2,"2024-09-18T23:00:00+02:00","France"
"FR","MÉRIGNAC","MERIGNAC",44.8413730001661,-0.65106799971438,"NO","eea","µg/m³",11.8,"2024-03-11T08:00:00+01:00","France"
"FR","GUÉRET","GUERET - Nicolas",46.1736200000662,1.87302399978817,"O3","eea","µg/m³",39.3,"2024-09-18T23:00:00+02:00","France"
"FR","RENNES","Rennes Thabor",48.1152100001935,-1.67308799988918,"NO","eea","µg/m³",25.8,"2024-03-11T08:00:00+01:00","France"
"FR","MONTGERON","MONTGERON",48.7066999998811,2.45720000020453,"O3","eea","µg/m³",67.4,"2024-09-18T23:00:00+02:00","France"
"FR","GRAND-COURONNE","Gd Couronne Mairie",49.358214999835,1.00785300040897,"PM10","eea","µg/m³",46.4,"2024-09-18T23:00:00+02:00","France"
"FR","LA PETITE-PIERRE","Vosges du Nord",48.8573100002683,7.31417500024352,"O3","eea","µg/m³",90.9,"2024-09-18T23:00:00+02:00","France"
"FR","LE PALAIS-SUR-VIENNE","PALAIS S/ V.- Garros",45.8733100001496,1.30791599981697,"O3","eea","µg/m³",60.8,"2024-09-18T23:00:00+02:00","France"
"FR","STRASBOURG","Strasbourg A35 Remparts",48.5880550000064,7.72972199987815,"PM10","eea","µg/m³",45.9,"2024-09-18T23:00:00+02:00","France"
"FR","BAIE-MAHAULT","ST de Baie mahault",16.2573069997402,-61.5917240003607,"NO2","eea","µg/m³",6.5,"2024-09-18T23:00:00+02:00","France"
"FR","CANNES","CANNES BROUSSAILLES",43.5583879998064,7.00591899983004,"NO","eea","µg/m³",11.9,"2024-03-11T10:00:00+01:00","France"
"FR","BOURG-EN-BRESSE","Bourg-en-Bresse",46.2116659998982,5.22638900029136,"PM2.5","eea","µg/m³",5.7,"2024-09-16T23:00:00+02:00","France"
"FR","CHÂTEAUROUX","Chateauroux Sud",46.7982800002074,1.69313899980028,"O3","eea","µg/m³",22.1,"2024-09-18T23:00:00+02:00","France"
"FR","CHÂTEAUROUX","Chateauroux Sud",46.7982800002074,1.69313899980028,"NO2","eea","µg/m³",29.6,"2024-09-18T23:00:00+02:00","France"
"FR","CAEN","Caen Chemin-Vert",49.1922200000328,-0.391111000326555,"PM2.5","eea","µg/m³",27.4,"2024-09-18T23:00:00+02:00","France"
"FR","ANNECY","ANNECY Rocade",45.9096999999883,6.11824999958726,"NO","eea","µg/m³",55,"2024-03-11T10:00:00+01:00","France"
"FR","ANNEMASSE","ANNEMASSE",46.1958299999168,6.24055600011761,"NO2","eea","µg/m³",35.3,"2024-09-18T23:00:00+02:00","France"
"FR","NEVERS","Nevers",46.9968259997978,3.17109200001237,"PM2.5","eea","µg/m³",7.6,"2024-09-16T08:00:00+02:00","France"
"FR","ANNECY","NOVEL",45.9169430001156,6.13555600041669,"O3","eea","µg/m³",42.5,"2024-09-18T23:00:00+02:00","France"
"FR","LABASTIDE-CÉZÉRACQ","LABASTIDE CEZERACQ",43.376278000024,-0.538206000342397,"SO2","eea","µg/m³",0.7,"2024-09-18T23:00:00+02:00","France"
"FR","SCY-CHAZELLES","Scy-Chazelles",49.1075020002343,6.12277499962463,"NO","eea","µg/m³",0.4,"2024-03-11T10:00:00+01:00","France"
"FR","SCY-CHAZELLES","Scy-Chazelles",49.1075020002343,6.12277499962463,"O3","eea","µg/m³",73.3,"2024-09-17T23:00:00+02:00","France"
"FR","CARTIGNIES","Cartignies",50.0922500001161,3.85002999965121,"NO2","eea","µg/m³",5,"2024-09-17T23:00:00+02:00","France"
"FR","CARTIGNIES","Cartignies",50.0922500001161,3.85002999965121,"NO","eea","µg/m³",1.2,"2024-03-11T09:00:00+01:00","France"
"FR","ATTON","Atton",48.8863869997662,6.09361099988959,"NO2","eea","µg/m³",23.3,"2024-09-17T23:00:00+02:00","France"
"FR","MARSEILLE 4E ARRONDISSEMENT","MARSEILLE 5 AVENUES",43.3052859999273,5.39471600005097,"SO2","eea","µg/m³",0.9,"2024-09-17T23:00:00+02:00","France"
"FR","NEUILLY-SUR-SEINE","NEUILLY-SUR-SEINE",48.8813900000285,2.27805599983326,"SO2","eea","µg/m³",2.9,"2021-01-04T14:00:00+01:00","France"
"FR","CHAMPIGNY-SUR-MARNE","CHAMPIGNY-SUR-MARNE",48.8163870001885,2.51750000025093,"NO","eea","µg/m³",39.8,"2024-03-11T10:00:00+01:00","France"
"FR","REIMS","Jean d Aulan",49.2241669997297,4.02055599976787,"PM2.5","eea","µg/m³",6.2,"2024-09-16T23:00:00+02:00","France"
"FR","SAINT-OMER","St Omer Ribot",50.7482300002354,2.25977999995667,"CO","eea","µg/m³",860,"2017-01-24T02:00:00+01:00","France"
"FR","NANTES","CIM BOUTEILLERIE",47.2224999999634,-1.53750000004799,"PM2.5","eea","µg/m³",4.1,"2024-09-16T23:00:00+02:00","France"
"FR","LOURDES","LOURDES LAPACCA",43.0962500002002,-0.0404969998324175,"PM2.5","eea","µg/m³",4.6,"2024-09-16T23:00:00+02:00","France"
"FR","LOURDES","LOURDES LAPACCA",43.0962500002002,-0.0404969998324175,"NO","eea","µg/m³",1.1,"2024-03-11T08:00:00+01:00","France"
"FR","LOURDES","LOURDES LAPACCA",43.0962500002002,-0.0404969998324175,"NO2","eea","µg/m³",10.6,"2024-09-16T23:00:00+02:00","France"
"FR","CHÂLONS-EN-CHAMPAGNE","CHALONS",48.9622229999545,4.36000000037125,"SO2","eea","µg/m³",0.3,"2019-09-17T10:00:00+02:00","France"
"FR","LAVAL","MAZAGRAN",48.0694300001585,-0.767691999765811,"NO2","eea","µg/m³",5.9,"2024-09-16T23:00:00+02:00","France"
"FR","SAINT-MARTIN-D'HÈRES","St Martin d'Heres",45.182800000109,5.75310000015467,"O3","eea","µg/m³",82.2,"2024-09-16T23:00:00+02:00","France"
"FR","SAINT-MARTIN-D'HÈRES","St Martin d'Heres",45.182800000109,5.75310000015467,"NO","eea","µg/m³",12.6,"2024-03-11T10:00:00+01:00","France"
"FR","PEYRUSSE-VIEILLE","PEYRUSSE",43.6286999997377,0.179069000028201,"PM10","eea","µg/m³",7.5,"2024-09-16T23:00:00+02:00","France"
"FR","TARBES","Tarbes lycée Dupuy",43.230296999729,0.062338999671559,"O3","eea","µg/m³",55.1,"2024-09-16T23:00:00+02:00","France"
"FR","ÉPERNAY","Rempart Perrier",49.0460999999616,3.95591099960915,"NO2","eea","µg/m³",18.5,"2024-09-16T23:00:00+02:00","France"
"FR","PORT-JÉRÔME-SUR-SEINE","NDGravenchon Pasteur",49.4933319998027,0.571853000282018,"NO","eea","µg/m³",2,"2024-03-11T10:00:00+01:00","France"
"FR","ROYAT","Royat Périurbaine",45.7641099997366,3.04611099982223,"NO2","eea","µg/m³",2.8,"2024-09-16T14:00:00+02:00","France"
"FR","MOULINS","Moulins Centre",46.5619739999054,3.34063890024972,"NO2","eea","µg/m³",3.6,"2024-09-16T14:00:00+02:00","France"
"FR","AGDE","Agathois-piscénois",43.2874999999812,3.50483999989313,"NO","eea","µg/m³",0.4,"2024-03-11T10:00:00+01:00","France"
"FR","AVIGNON","AVIGNON   MAIRIE",43.9496729999063,4.80434099984507,"PM10","eea","µg/m³",24.5,"2024-09-16T14:00:00+02:00","France"
"FR","MONTPELLIER","Montpellier Prés d'Arènes",43.5915000003243,3.88680999990834,"NO2","eea","µg/m³",3.9,"2024-09-16T14:00:00+02:00","France"
"FR","POITIERS","Poitiers Centre  Augouard",46.5839999999289,0.34558200029356,"PM10","eea","µg/m³",10.9,"2024-09-16T14:00:00+02:00","France"
"FR","POITIERS","Poitiers Centre  Augouard",46.5839999999289,0.34558200029356,"NO2","eea","µg/m³",8.7,"2024-09-16T14:00:00+02:00","France"
"FR","LE TAMPON","Station Bourg-Murat",-21.2048149996145,55.5826200003951,"SO2","eea","µg/m³",1.4,"2024-09-16T08:00:00+02:00","France"
"FR","ÉPINAL","Epinal",48.1727800002807,6.45281099995298,"PM10","eea","µg/m³",17.3,"2024-07-30T13:00:00+02:00","France"
"FR","PARIS 8E ARRONDISSEMENT","Av Champs Elysees",48.8688899999167,2.3119439997973,"PM2.5","eea","µg/m³",16,"2024-07-30T09:00:00+02:00","France"
"FR","VITRY-LE-FRANÇOIS","Capitainerie",48.7266000002082,4.59478099976097,"NO2","eea","µg/m³",2.2,"2024-07-23T13:00:00+02:00","France"
"FR","PARIS 15E ARRONDISSEMENT","PARIS Stade Lenglen",48.8303869997457,2.26988899966535,"NO2","eea","µg/m³",-1,"2024-05-25T00:00:00+02:00","France"
"FR","PARIS 15E ARRONDISSEMENT","PARIS Stade Lenglen",48.8303869997457,2.26988899966535,"PM10","eea","µg/m³",-1,"2024-05-25T00:00:00+02:00","France"
"FR","ATMO NOUVELLE-AQUITAINE","NET-FR058A",43.310833,-0.391111,"SO2","EEA France","µg/m³",0.8,"2019-01-14T10:00:00+01:00","France"
"FR","ATMO NORMANDIE","NET-FR069A",49.40052,1.098825,"NO2","EEA France","µg/m³",30.2,"2024-03-04T08:00:00+01:00","France"
"FR","ATMO OCCITANIE","NET-FR068A",43.096943,-0.038889,"NO","EEA France","µg/m³",1.4,"2024-03-04T08:00:00+01:00","France"
"FR","ATMO NOUVELLE-AQUITAINE","NET-FR058A",46.58389,0.345556,"NO","EEA France","µg/m³",88.1,"2024-03-04T08:00:00+01:00","France"
"FR","ATMO OCCITANIE","NET-FR068A",43.695366,3.800817,"PM10","EEA France","µg/m³",13.7,"2019-06-04T05:00:00+02:00","France"
"FR","ATMO OCCITANIE","NET-FR068A",43.58722,1.443889,"PM10","EEA France","µg/m³",4.5,"2024-03-04T08:00:00+01:00","France"
"FR","ATMO OCCITANIE","NET-FR068A",43.611668,3.864722,"NO","EEA France","µg/m³",4.8,"2024-03-04T08:00:00+01:00","France"
"FR","ATMO NOUVELLE-AQUITAINE","NET-FR058A",43.47972,-1.488056,"NO","EEA France","µg/m³",3.6,"2024-03-04T08:00:00+01:00","France"
"FR","ATMO NOUVELLE-AQUITAINE","NET-FR058A",44.900276,-0.514722,"PM2.5","EEA France","µg/m³",5.1,"2024-03-04T08:00:00+01:00","France"
"FR","Nièvre","FR26012",47.2750173101874,4.09832992182145,"PM10","EEA France","µg/m³",3.2,"2024-01-29T17:00:00+01:00","France"
"FR","Bouches-du-Rhône","FR03032",43.2947895081236,5.57173766768144,"NO","EEA France","µg/m³",2.7,"2024-01-29T18:00:00+01:00","France"
"FR","Ille-et-Vilaine","FR19007",48.1075139513805,-1.67916686168757,"NO","EEA France","µg/m³",7.3,"2024-01-29T18:00:00+01:00","France"
"FR","Alpes-Maritimes","FR24023",43.7933622306242,7.33139357882613,"PM10","EEA France","µg/m³",47,"2024-01-29T18:00:00+01:00","France"
"FR","Bouches-du-Rhône","FR02022",43.6755544389705,4.62861441719004,"NO2","EEA France","µg/m³",31.7,"2024-01-29T18:00:00+01:00","France"
"FR","Saône-et-Loire","FR32005",46.6666401423631,4.36666568034079,"NO2","EEA France","µg/m³",47.3,"2024-01-29T18:00:00+01:00","France"
"FR","Bouches-du-Rhône","FR03029",43.5302972250095,5.44138313680286,"PM10","EEA France","µg/m³",20.4,"2024-01-29T18:00:00+01:00","France"
"FR","Alpes-de-Haute-Provence","FR24039",43.9335199525261,5.71170417210011,"PM10","EEA France","µg/m³",5.1,"2024-01-29T18:00:00+01:00","France"
"FR","Loir-et-Cher","FR34061",47.5945165359368,1.30173969506476,"NO2","EEA France","µg/m³",19.2,"2024-01-29T18:00:00+01:00","France"
"FR","Finistère","FR19014",48.3996394541087,-4.46723207639797,"NO2","EEA France","µg/m³",17.8,"2024-01-29T17:00:00+01:00","France"
"FR","Finistère","FR19014",48.3996394541087,-4.46723207639797,"PM10","EEA France","µg/m³",90.8,"2024-01-29T16:00:00+01:00","France"
"FR","Bouches-du-Rhône","FR02020",43.510559975903,5.21972384044637,"PM2.5","EEA France","µg/m³",9.1,"2024-01-29T17:00:00+01:00","France"
"FR","Reunion","FR38020",-21.009739859322,55.2727106111753,"SO2","EEA France","µg/m³",1.2,"2024-01-29T16:00:00+01:00","France"
"FR","Yonne","FR26019",47.8005658610427,3.57639077544232,"NO2","EEA France","µg/m³",15.75,"2018-07-11T10:00:00+02:00","France"
"FR","Nord","FR11007",50.6408018273658,3.07477152078998,"NO","EEA France","µg/m³",21.5,"2024-01-12T11:00:00+01:00","France"
"FR","","FR18019",49.2763912615378,2.48217089416201,"O3","EEA France","µg/m³",16.8,"2022-01-21T09:00:00+01:00","France"
"FR","","FR23140",47.2043914135194,-1.552827800129,"PM10","EEA France","µg/m³",7.7,"2021-05-31T03:00:00+02:00","France"
"FR","","FR26035",47.1372157133461,4.95057959817132,"NO2","EEA France","µg/m³",7.6,"2021-01-01T01:00:00+01:00","France"
"FR","","FR02024",43.457222,4.426667,"O3","EEA France","µg/m³",29.8,"2020-04-21T08:00:00+02:00","France"
"FR","","FR39018",14.7549926623185,-61.1788641096759,"PM10","EEA France","µg/m³",12,"2019-08-08T09:00:00+02:00","France"
"FR","","FR08204",43.8291454141088,4.64295152912459,"NO2","EEA France","µg/m³",5,"2019-07-04T12:00:00+02:00","France"
"FR","","FR04143",48.8594439994682,2.351111,"PM2.5","EEA France","µg/m³",15.3,"2018-04-25T02:00:00+02:00","France"
"FR","","FR34029",47.8374309994659,1.944611,"NO2","EEA France","µg/m³",4.88,"2018-04-25T02:00:00+02:00","France"
"FR","","FR06134",50.438677999473,3.433458,"O3","EEA France","µg/m³",61.5,"2018-04-25T02:00:00+02:00","France"
"FR","","FR34061",47.5946059994655,1.303647,"O3","EEA France","µg/m³",80.68,"2018-04-25T02:00:00+02:00","France"
"FR","","FR34032",47.0826499994647,2.404492,"NO2","EEA France","µg/m³",7.23,"2018-04-25T02:00:00+02:00","France"
"FR","","FR10032",50.6938919994739,1.576389,"NO2","EEA France","µg/m³",5.3,"2018-04-25T02:00:00+02:00","France"
"FR","","FR15017",45.1904389994632,5.686964,"O3","EEA France","µg/m³",0.75,"2018-02-13T08:00:00+01:00","France"
"FR","","Evreux  Boulevard de Normandie",49.0202023170884,1.13871343730275,"NO2","EEA France","µg/m³",83.75,"2016-12-05T18:00:00+01:00","France"
"FR","STRASBOURG","Strasbourg Clemenceau",48.590429999772,7.74498300033633,"NO2","eea","µg/m³",54.8,"2024-09-18T23:00:00+02:00","France"
"FR","VESOUL","Vesoul Pres Caillet",47.6200200000515,6.15764199975499,"NO2","eea","µg/m³",15.1,"2024-09-18T23:00:00+02:00","France"
"FR","BRIVE-LA-GAILLARDE","BRIVE - Dalton",45.1587370002402,1.53725900002356,"NO","eea","µg/m³",-0.7,"2024-03-11T10:00:00+01:00","France"
"FR","LACQ","LACQ",43.4112300000173,-0.617727999921422,"NO","eea","µg/m³",0.3,"2024-03-11T10:00:00+01:00","France"
"FR","VAL-DE-REUIL","Base loisirs Poses",49.3048700002814,1.2143670002142,"PM10","eea","µg/m³",49.1,"2024-09-18T23:00:00+02:00","France"
"FR","ROMANS-SUR-ISÈRE","Romans-sur-Isère",45.042500000017,5.04429999992356,"PM2.5","eea","µg/m³",8.1,"2024-09-18T23:00:00+02:00","France"
"FR","ALBERTVILLE","Albertville",45.6750000001249,6.38972200044397,"PM2.5","eea","µg/m³",6.5,"2024-09-18T23:00:00+02:00","France"
"FR","FORBACH","Station de FORBACH",49.1874199998884,6.91086700017932,"NO","eea","µg/m³",3.7,"2024-03-11T10:00:00+01:00","France"
"FR","BELFORT","Belfort Octroi",47.6406669998236,6.85927800027395,"NO2","eea","µg/m³",23.2,"2024-09-18T23:00:00+02:00","France"
"FR","CHÂTENOIS","Chatenois",47.1472500000899,5.55611699974981,"SO2","eea","µg/m³",1.1,"2024-09-18T23:00:00+02:00","France"
"FR","GUÉRET","GUERET - Nicolas",46.1736200000662,1.87302399978817,"PM10","eea","µg/m³",14.3,"2024-09-16T08:00:00+02:00","France"
"FR","DIJON","Dijon Trémouille",47.325745000116,5.04105600017628,"NO","eea","µg/m³",19.6,"2024-03-11T08:00:00+01:00","France"
"FR","CHARTRES","Chartres_trafic",48.4491579997343,1.49246899995736,"NO","eea","µg/m³",16.3,"2024-03-11T10:00:00+01:00","France"
"FR","ARLES","Arles",43.6751139999298,4.62921000022341,"NO2","eea","µg/m³",15.2,"2024-09-18T23:00:00+02:00","France"
"FR","JOUÉ-LÈS-TOURS","Joué lès Tours",47.3441400000065,0.653778000432585,"PM2.5","eea","µg/m³",10.7,"2024-09-18T23:00:00+02:00","France"
"FR","BAUME-LES-DAMES","Baume-les-Dames",47.3512879997476,6.35972199975944,"PM10","eea","µg/m³",8.9,"2024-09-16T08:00:00+02:00","France"
"FR","TULLE","TULLE - Hugo",45.2626650002923,1.76275199968717,"NO2","eea","µg/m³",18.3,"2024-09-18T23:00:00+02:00","France"
"FR","SAINT-MICHEL-L'OBSERVATOIRE","Obs Haute-Provence",43.9334750001492,5.71180900010387,"O3","eea","µg/m³",75.7,"2024-09-18T23:00:00+02:00","France"
"FR","MARIGNY-LES-USAGES","Marigny-les-usages",47.9589729999032,2.00927799980123,"O3","eea","µg/m³",74.1,"2024-09-18T23:00:00+02:00","France"
"FR","POITIERS","Les Couronneries",46.5869600000919,0.358457999723541,"PM10","eea","µg/m³",15.9,"2024-09-16T08:00:00+02:00","France"
"FR","MORDELLES","MORDELLES BELLAIS",48.0828820001711,-1.83458300019766,"O3","eea","µg/m³",76.2,"2024-09-18T23:00:00+02:00","France"
"FR","BOURGES","Bourges-Baffier",47.07504299984,2.40718299994408,"NO","eea","µg/m³",5.7,"2024-03-11T10:00:00+01:00","France"
"FR","PARIS 9E ARRONDISSEMENT","Boulevard Haussmann",48.8733330000044,2.33027800029853,"NO2","eea","µg/m³",24.5,"2024-09-18T23:00:00+02:00","France"
"FR","ANGOULÊME","Square Pablo Casals",45.6474269998404,0.16716199982047,"NO","eea","µg/m³",3.4,"2024-03-11T08:00:00+01:00","France"
"FR","IFS","IFS Caen sud",49.1516700001407,-0.352777999792764,"NO","eea","µg/m³",1.1,"2024-03-11T10:00:00+01:00","France"
"FR","VILLAGE-NEUF","C.C.3 Frontières",47.5949129999996,7.56817499969113,"PM10","eea","µg/m³",3.9,"2023-01-11T07:00:00+01:00","France"
"FR","PERPIGNAN","Perpignan Les Carmes",42.6955000001482,2.90052999972499,"NO","eea","µg/m³",1.8,"2024-03-11T10:00:00+01:00","France"
"FR","HARNES","Harnes Serres",50.4491399998364,2.89999999999557,"PM2.5","eea","µg/m³",5.8,"2024-09-16T08:00:00+02:00","France"
"FR","MONTFAUCON","Montfaucon",47.2346099999514,6.07647200036306,"O3","eea","µg/m³",80.2,"2024-09-18T23:00:00+02:00","France"
"FR","BASSENS","BASSENS",44.9002950000358,-0.515834999700427,"NO","eea","µg/m³",5,"2024-03-11T10:00:00+01:00","France"
"FR","LYON 3E ARRONDISSEMENT","LYON Centre",45.7577319999332,4.85421400016547,"PM2.5","eea","µg/m³",5.9,"2024-09-18T23:00:00+02:00","France"
"FR","CAEN","Caen Chemin-Vert",49.1922200000328,-0.391111000326555,"NO2","eea","µg/m³",17.3,"2024-09-18T23:00:00+02:00","France"
"FR","DOLE","Dole centre",47.0967200000337,5.49638900016394,"NO","eea","µg/m³",28.1,"2024-03-11T08:00:00+01:00","France"
"FR","GAILLARD","GAILLARD",46.1936899998302,6.21485799988769,"PM2.5","eea","µg/m³",7.5,"2024-09-18T23:00:00+02:00","France"
"FR","AYTRÉ","Aytré",46.1351360000773,-1.11708600006922,"O3","eea","µg/m³",57.7,"2024-09-18T23:00:00+02:00","France"
"FR","LABASTIDE-CÉZÉRACQ","LABASTIDE CEZERACQ",43.376278000024,-0.538206000342397,"PM10","eea","µg/m³",2.9,"2024-09-16T08:00:00+02:00","France"
"FR","STRASBOURG","Strasbourg Neudorf Ecoquartier Danube",48.5728069998645,7.76783299975578,"NO2","eea","µg/m³",12.3,"2024-09-17T23:00:00+02:00","France"
"FR","PARIS 12E ARRONDISSEMENT","PARIS 12eme",48.8372230000981,2.39389999991001,"NO2","eea","µg/m³",14.6,"2024-09-17T23:00:00+02:00","France"
"FR","METZ","Metz- Pont Grilles",49.1250800001021,6.18121900034399,"NO2","eea","µg/m³",8.9,"2024-09-17T23:00:00+02:00","France"
"FR","TOULOUSE","Toulouse Berthelot",43.5873450000132,1.44400300032376,"NO2","eea","µg/m³",9.5,"2024-09-16T23:00:00+02:00","France"
"FR","HALLUIN","Halluin stade",50.7754819998265,3.12568000015524,"NO2","eea","µg/m³",7.5,"2024-09-16T23:00:00+02:00","France"
"FR","CREIL","Faiencerie Creil",49.2595520002579,2.4743970003557,"O3","eea","µg/m³",62.8,"2024-09-16T23:00:00+02:00","France"
"FR","CREIL","Faiencerie Creil",49.2595520002579,2.4743970003557,"PM10","eea","µg/m³",8.9,"2024-09-16T23:00:00+02:00","France"
"FR","CHOLET","SAINT EXUPERY",47.0544429999979,-0.886110999943241,"NO","eea","µg/m³",0.3,"2024-03-11T07:00:00+01:00","France"
"FR","TRIGNAC","JULES VERNE",47.3157270003001,-2.19076399974636,"NO2","eea","µg/m³",6.6,"2024-09-16T23:00:00+02:00","France"
"FR","NANTES","CIM BOUTEILLERIE",47.2224999999634,-1.53750000004799,"NO2","eea","µg/m³",8.6,"2024-09-16T23:00:00+02:00","France"
"FR","DUNKERQUE","St Pol mer - cheminots",51.0327599998369,2.33235799993157,"O3","eea","µg/m³",70.1,"2024-09-16T23:00:00+02:00","France"
"FR","PEYRUSSE-VIEILLE","PEYRUSSE",43.6286999997377,0.179069000028201,"PM2.5","eea","µg/m³",4.1,"2024-09-16T23:00:00+02:00","France"
"FR","CALAIS","Calais Berthelot",50.9472900000261,1.84308000007845,"PM10","eea","µg/m³",9.2,"2024-09-16T23:00:00+02:00","France"
"FR","SAINT-MICHEL-DE-MAURIENNE","Maurienne Trafic",45.209365999758,6.4803260000502,"NO2","eea","µg/m³",5.3,"2024-09-16T23:00:00+02:00","France"
"FR","CLERMONT-FERRAND","Beaulieu",45.7690000000847,3.1550000004242,"NO","eea","µg/m³",5.2,"2024-03-11T10:00:00+01:00","France"
"FR","VICHY","Vichy",46.1304319997242,3.42569400005774,"O3","eea","µg/m³",85.2,"2024-09-16T14:00:00+02:00","France"
"FR","LE HAVRE","Le Havre Massillon",49.4983000002172,0.142706000420907,"NO","eea","µg/m³",3.6,"2024-03-11T08:00:00+01:00","France"
"FR","AGDE","Agathois-piscénois",43.2874999999812,3.50483999989313,"O3","eea","µg/m³",79.3,"2024-09-16T14:00:00+02:00","France"
"FR","AVIGNON","AVIGNON   MAIRIE",43.9496729999063,4.80434099984507,"O3","eea","µg/m³",90.7,"2024-07-23T16:00:00+02:00","France"
"FR","SAINT-DENIS","LYC. LISLET GEOFFROY",-20.8898930003724,55.4688400000578,"PM2.5","eea","µg/m³",2.6,"2024-09-16T14:00:00+02:00","France"
"FR","MONTPELLIER","Montpellier Prés d'Arènes",43.5915000003243,3.88680999990834,"PM10","eea","µg/m³",10.1,"2024-09-16T14:00:00+02:00","France"
"FR","ROGERVILLE","Rogerville Mairie",49.5036199999966,0.266871999577949,"O3","eea","µg/m³",70.3,"2024-09-16T14:00:00+02:00","France"
"FR","LUNEL-VIEL","Lunel Viel",43.6757999997234,4.08838000027485,"PM10","eea","µg/m³",6.4,"2024-09-16T14:00:00+02:00","France"
"FR","CHÂTEAUNEUF-LES-MARTIGUES","Chateauneuf La Mede",43.3995479999429,5.11321400002661,"PM10","eea","µg/m³",12.7,"2024-09-16T08:00:00+02:00","France"
"FR","MARCQ-EN-BARŒUL","Marcq CTM",50.6700299997373,3.07656000004533,"NO2","eea","µg/m³",23.25,"2017-07-18T22:00:00+02:00","France"
"FR","ROUSSILLON","ROUSSILLON",45.3678200001453,4.80514699975902,"O3","eea","µg/m³",65.2,"2024-05-31T09:00:00+02:00","France"
"FR","ATMO NORMANDIE","NET-FR069A",49.40052,1.098825,"PM2.5","EEA France","µg/m³",9.8,"2024-01-29T18:00:00+01:00","France"
"FR","ATMO HAUTS DE FRANCE","NET-FR074A",49.9025,2.3046,"NO","EEA France","µg/m³",63.1,"2024-03-04T08:00:00+01:00","France"
"FR","ATMO NORMANDIE","NET-FR069A",49.44246,1.093694,"NO2","EEA France","µg/m³",39.1,"2024-03-04T08:00:00+01:00","France"
"FR","ATMO NOUVELLE-AQUITAINE","NET-FR058A",46.58389,0.345556,"PM2.5","EEA France","µg/m³",10.3,"2024-03-04T08:00:00+01:00","France"
"FR","ATMO OCCITANIE","NET-FR068A",43.609974,3.898611,"NO","EEA France","µg/m³",1.2,"2023-04-26T10:00:00+02:00","France"
"FR","ATMO OCCITANIE","NET-FR068A",43.942886,4.679686,"O3","EEA France","µg/m³",59.4,"2024-03-04T08:00:00+01:00","France"
"FR","ATMO NOUVELLE-AQUITAINE","NET-FR058A",46.5909,0.3404,"NO2","EEA France","µg/m³",48.1,"2024-03-04T08:00:00+01:00","France"
"FR","ATMO NOUVELLE-AQUITAINE","NET-FR058A",46.143173,-0.396042,"O3","EEA France","µg/m³",31.4,"2024-03-04T08:00:00+01:00","France"
"FR","ATMO NOUVELLE-AQUITAINE","NET-FR058A",46.143173,-0.396042,"NO","EEA France","µg/m³",0.9,"2024-03-04T08:00:00+01:00","France"
"FR","ATMO NOUVELLE-AQUITAINE","NET-FR058A",43.410557,-0.616944,"SO2","EEA France","µg/m³",0.2,"2024-03-04T08:00:00+01:00","France"
"FR","ATMO NOUVELLE-AQUITAINE","NET-FR058A",43.376945,-0.609444,"NO","EEA France","µg/m³",0.8,"2024-03-04T08:00:00+01:00","France"
"FR","ATMO OCCITANIE","NET-FR068A",43.610558,2.23,"O3","EEA France","µg/m³",56.6,"2024-03-04T08:00:00+01:00","France"
"FR","ATMO OCCITANIE","NET-FR068A",43.834404,4.374219,"NO2","EEA France","µg/m³",13.2,"2024-03-04T08:00:00+01:00","France"
"FR","ATMO OCCITANIE","NET-FR068A",43.230278,0.062222,"PM2.5","EEA France","µg/m³",10.2,"2024-01-29T18:00:00+01:00","France"
"FR","Côte-d'Or","FR26005",47.3080413032157,5.06611192686193,"NO2","EEA France","µg/m³",46.4,"2024-01-29T18:00:00+01:00","France"
"FR","Bouches-du-Rhône","FR02001",43.4858630407889,5.17194245048405,"O3","EEA France","µg/m³",76.3,"2024-01-29T18:00:00+01:00","France"
"FR","Morbihan","FR19033",47.648889066211,-2.76389155041474,"O3","EEA France","µg/m³",38.5,"2024-01-29T18:00:00+01:00","France"
"FR","Martinique","FR39015",14.6061349483266,-61.0652272262348,"PM10","EEA France","µg/m³",13.2,"2024-01-29T18:00:00+01:00","France"
"FR","Ille-et-Vilaine","FR19002",48.1086536280958,-1.66576399764851,"PM2.5","EEA France","µg/m³",12.2,"2024-01-29T18:00:00+01:00","France"
"FR","Alpes-Maritimes","FR24009",43.5625273554356,7.00721854224592,"PM2.5","EEA France","µg/m³",11.5,"2024-01-29T18:00:00+01:00","France"
"FR","Bouches-du-Rhône","FR03030",43.453461514164,5.4671019033872,"PM2.5","EEA France","µg/m³",12.9,"2024-01-29T17:00:00+01:00","France"
"FR","Reunion","FR38008",-20.8847369878067,55.4538109724538,"PM2.5","EEA France","µg/m³",3.5,"2023-12-31T21:00:00+01:00","France"
"FR","","FR09399",46.3217459318821,-0.46597230754791,"PM10","EEA France","µg/m³",26.5,"2021-03-19T04:00:00+01:00","France"
"FR","","FR16038",48.5703749994675,7.766331,"PM10","EEA France","µg/m³",20.13,"2018-08-23T14:00:00+02:00","France"
"FR","","FR02005",43.4051999994639,5.0515,"SO2","EEA France","µg/m³",0.5,"2016-12-05T18:00:00+01:00","France"
"FR","","PARIS Centre",48.8589975104964,2.35099889637488,"O3","EEA France","µg/m³",23,"2019-09-23T10:00:00+02:00","France"
"FR","","FR30038",48.5492988706458,5.46068793225859,"PM10","EEA France","µg/m³",93.2,"2019-04-18T14:00:00+02:00","France"
"FR","","FR34018",47.9979809994662,2.720156,"O3","EEA France","µg/m³",81.6,"2018-04-25T02:00:00+02:00","France"
"FR","","FR04143",48.8594439994682,2.351111,"PM10","EEA France","µg/m³",23.65,"2018-04-25T02:00:00+02:00","France"
"FR","","FR04143",48.8594439994682,2.351111,"NO2","EEA France","µg/m³",14.75,"2018-04-25T02:00:00+02:00","France"
"FR","","FR34029",47.8374309994659,1.944611,"O3","EEA France","µg/m³",77.28,"2018-04-25T02:00:00+02:00","France"
"FR","","FR34025",47.4193389994652,0.684139,"PM10","EEA France","µg/m³",15.55,"2018-04-25T02:00:00+02:00","France"
"FR","","Rouen Le Conquerant",49.4414447487293,1.08265856357369,"PM10","EEA France","µg/m³",52,"2016-12-05T18:00:00+01:00","France"
"FR","","MOULINS",46.5618635984186,3.3310878208078,"PM10","EEA France","µg/m³",19.25,"2016-12-01T21:00:00+01:00","France"
"FR","SAILLAT-SUR-VIENNE","SAILLAT - Ipaper",45.87583500017,0.823951000371826,"NO","eea","µg/m³",0.2,"2024-03-11T10:00:00+01:00","France"
"FR","SENS","Sens",48.2004359999738,3.27730000020845,"NO2","eea","µg/m³",18.1,"2024-09-18T23:00:00+02:00","France"
"FR","VESOUL","Vesoul Pres Caillet",47.6200200000515,6.15764199975499,"O3","eea","µg/m³",38.7,"2024-09-18T23:00:00+02:00","France"
"FR","CHAMPFORGEUIL","Champforgueil",46.8210560001565,4.83508299997113,"PM10","eea","µg/m³",15.9,"2024-09-16T08:00:00+02:00","France"
"FR","JONVILLE-EN-WOËVRE","Jonville en Woevre",49.0658299999143,5.78555600021588,"O3","eea","µg/m³",71.2,"2024-09-18T23:00:00+02:00","France"
"FR","QUIMPER","Quimper Zola",47.9866069997269,-4.09765799995523,"O3","eea","µg/m³",87.2,"2024-09-18T23:00:00+02:00","France"
"FR","MÉRIGNAC","MERIGNAC",44.8413730001661,-0.65106799971438,"NO2","eea","µg/m³",59.6,"2024-09-18T23:00:00+02:00","France"
"FR","MÂCON","Macon Paul Bert",46.3161740002279,4.83999399979789,"O3","eea","µg/m³",52.7,"2024-09-18T23:00:00+02:00","France"
"FR","TERNAY","TERNAY",45.6018999997678,4.80220000011266,"PM2.5","eea","µg/m³",13.7,"2024-02-07T11:00:00+01:00","France"
"FR","VERQUIGNEUL","Noeux-les-Mines",50.4897199999063,2.66641999963169,"O3","eea","µg/m³",45.7,"2024-09-18T23:00:00+02:00","France"
"FR","SAINT-JEAN-DE-LA-RUELLE","St Jean de la Ruelle",47.910300000205,1.87343100039226,"NO","eea","µg/m³",14.7,"2024-03-11T10:00:00+01:00","France"
"FR","SAINT-JEAN-DE-LA-RUELLE","St Jean de la Ruelle",47.910300000205,1.87343100039226,"PM10","eea","µg/m³",41.7,"2024-09-18T23:00:00+02:00","France"
"FR","BRUNSTATT-DIDENHEIM","Mulhouse Est",47.7231060000767,7.34160300030211,"O3","eea","µg/m³",70.8,"2024-09-18T23:00:00+02:00","France"
"FR","ANGLET","ANGLET",43.4940400001703,-1.52875299992194,"NO","eea","µg/m³",7.4,"2024-03-11T10:00:00+01:00","France"
"FR","TALENCE","TALENCE",44.8004599997874,-0.589397999689418,"NO","eea","µg/m³",1,"2024-03-11T08:00:00+01:00","France"
"FR","NANCY","Nancy-Libération",48.6970800001459,6.15419399979321,"NO","eea","µg/m³",37.1,"2024-03-11T09:00:00+01:00","France"
"FR","VILLAGE-NEUF","C.C.3 Frontières",47.5949129999996,7.56817499969113,"NO2","eea","µg/m³",42.9,"2024-09-18T23:00:00+02:00","France"
"FR","HARNES","Harnes Serres",50.4491399998364,2.89999999999557,"SO2","eea","µg/m³",4.37,"2017-06-15T16:00:00+02:00","France"
"FR","CANNES","CANNES BROUSSAILLES",43.5583879998064,7.00591899983004,"PM2.5","eea","µg/m³",6.1,"2024-09-18T23:00:00+02:00","France"
"FR","CANNES","CANNES BROUSSAILLES",43.5583879998064,7.00591899983004,"PM10","eea","µg/m³",10.3,"2024-09-18T23:00:00+02:00","France"
"FR","VILLERS-LÈS-NANCY","Nancy-Brabois 2",48.6569440000801,6.1360219996737,"O3","eea","µg/m³",85,"2024-09-18T23:00:00+02:00","France"
"FR","LYON 3E ARRONDISSEMENT","LYON Centre",45.7577319999332,4.85421400016547,"SO2","eea","µg/m³",0.5,"2016-12-05T02:00:00+01:00","France"
"FR","BLOIS","Blois_trafic",47.5865439999998,1.32653300017541,"NO2","eea","µg/m³",44.2,"2024-09-18T23:00:00+02:00","France"
"FR","CHAMONIX-MONT-BLANC","BOSSONS",45.9072229998124,6.84583299985817,"PM10","eea","µg/m³",17.1,"2024-09-18T23:00:00+02:00","France"
"FR","DOLE","Dole centre",47.0967200000337,5.49638900016394,"O3","eea","µg/m³",61.7,"2024-09-18T23:00:00+02:00","France"
"FR","DOUAI","Douai Theuriet",50.378220000192,3.06585999960954,"NO2","eea","µg/m³",10,"2024-09-17T23:00:00+02:00","France"
"FR","PARIS 12E ARRONDISSEMENT","Bld peripherique Est",48.8386150001873,2.4127809998591,"NO","eea","µg/m³",121,"2024-03-11T10:00:00+01:00","France"
"FR","PARIS 1ER ARRONDISSEMENT","PARIS 1er Les Halles",48.8621199998727,2.34461599976858,"NO2","eea","µg/m³",16.9,"2024-09-17T23:00:00+02:00","France"
"FR","PARIS 1ER ARRONDISSEMENT","PARIS 1er Les Halles",48.8621199998727,2.34461599976858,"O3","eea","µg/m³",56.6,"2024-09-17T23:00:00+02:00","France"
"FR","RAMBOUILLET","RAMBOUILLET",48.6337299998935,1.83052900033848,"PM2.5","eea","µg/m³",14.6,"2024-09-17T23:00:00+02:00","France"
"FR","PARIS 13E ARRONDISSEMENT","PARIS 13eme",48.828610000236,2.36027800008475,"NO","eea","µg/m³",16.7,"2024-03-11T10:00:00+01:00","France"
"FR","PARIS 2E ARRONDISSEMENT","Place de l'Opéra",48.8702740002815,2.33250000022179,"PM10","eea","µg/m³",30.7,"2024-09-17T23:00:00+02:00","France"
"FR","AUBERVILLIERS","AUBERVILLIERS",48.9038999997566,2.38470000004744,"NO","eea","µg/m³",15.8,"2024-03-11T08:00:00+01:00","France"
"FR","LA PENNE-SUR-HUVEAUNE","VALLEE HUVEAUNE",43.2833399997746,5.51138399958502,"O3","eea","µg/m³",46.4,"2024-09-17T23:00:00+02:00","France"
"FR","MARSEILLE 4E ARRONDISSEMENT","MARSEILLE 5 AVENUES",43.3052859999273,5.39471600005097,"O3","eea","µg/m³",56.7,"2024-09-17T23:00:00+02:00","France"
"FR","GONESSE","GONESSE",48.9908300001307,2.44472200025949,"NO","eea","µg/m³",7.7,"2024-03-11T10:00:00+01:00","France"
"FR","METZ","Metz-Borny",49.1102830002213,6.22333600040022,"PM10","eea","µg/m³",10.1,"2024-09-16T08:00:00+02:00","France"
"FR","MARIGNANE","Marignane",43.4165300001598,5.2222810000055,"NO2","eea","µg/m³",11.2,"2024-09-17T23:00:00+02:00","France"
"FR","VALENCIENNES","Valenciennes Wallon",50.3642500001959,3.52272999998034,"PM10","eea","µg/m³",19.1,"2024-09-17T23:00:00+02:00","France"
"FR","BRIGNOLES","BRIGNOLES",43.3987299999985,6.07561100019752,"PM10","eea","µg/m³",7.8,"2024-09-16T08:00:00+02:00","France"
"FR","BOUAYE","EPINETTES",47.1460880000449,-1.69026900014682,"O3","eea","µg/m³",55.1,"2024-09-16T23:00:00+02:00","France"
"FR","LA ROCHE-SUR-YON","DELACROIX",46.6607000002319,-1.43683100021568,"NO","eea","µg/m³",2.8,"2024-03-11T09:00:00+01:00","France"
"FR","BEAUVAIS","Trafic Beauvais 1",49.4359320000813,2.08429199995963,"PM2.5","eea","µg/m³",7.4,"2024-08-12T13:00:00+02:00","France"
"FR","NEUILLY-SAINT-FRONT","Neuilly-Saint-Front",49.1749299998364,3.26081899955954,"NO","eea","µg/m³",4.5,"2024-03-11T08:00:00+01:00","France"
"FR","SAINT-OMER","St Omer Ribot",50.7482300002354,2.25977999995667,"NO2","eea","µg/m³",5.9,"2024-09-16T23:00:00+02:00","France"
"FR","GRENOBLE","Grenoble Les Frenes",45.1619000003116,5.7356000000548,"PM10","eea","µg/m³",5.8,"2024-09-16T23:00:00+02:00","France"
"FR","REZÉ","LEVOYER",47.1941500002099,-1.58167780004469,"PM10","eea","µg/m³",12.9,"2024-09-16T23:00:00+02:00","France"
"FR","SAINT-NAZAIRE","LEON BLUM",47.2641200000181,-2.24985799984573,"NO","eea","µg/m³",1,"2024-03-11T07:00:00+01:00","France"
"FR","TOULOUSE","TRAFIC_TOULOUSE",43.643943999839,1.46824399963817,"PM10","eea","µg/m³",10.9,"2024-09-16T23:00:00+02:00","France"
"FR","TOULOUSE","TRAFIC_TOULOUSE",43.643943999839,1.46824399963817,"NO2","eea","µg/m³",20.4,"2024-09-16T23:00:00+02:00","France"
"FR","GRANDE-SYNTHE","Grande-synthe",51.0244600002385,2.30214999973289,"CO","eea","µg/m³",-15,"2024-03-11T04:00:00+01:00","France"
"FR","DONGES","PARSCAU DU PLESSIS",47.3191570002322,-2.06695300041656,"PM10","eea","µg/m³",6.1,"2024-09-16T23:00:00+02:00","France"
"FR","CAPPELLE-LA-GRANDE","Cappelle la Grande",50.9959400001875,2.36627000018506,"NO2","eea","µg/m³",3.5,"2024-09-16T23:00:00+02:00","France"
"FR","LE MONÊTIER-LES-BAINS","Le Casset2",44.9970000002859,6.4693999996586,"O3","eea","µg/m³",97.8,"2024-09-16T23:00:00+02:00","France"
"FR","","FR34013",47.905982999466,1.900361,"NO2","EEA France","µg/m³",14.15,"2018-04-25T02:00:00+02:00","France"
"FR","","FR34017",47.9590139994661,2.010036,"O3","EEA France","µg/m³",69.33,"2018-04-25T02:00:00+02:00","France"
"FR","","FR34024",47.344499999465,0.653322,"NO2","EEA France","µg/m³",5.48,"2018-04-25T02:00:00+02:00","France"
"FR","","FR37002",16.2386999997104,-61.5381,"O3","EEA France","µg/m³",40.3,"2018-01-26T16:00:00+01:00","France"
"FR","","COL_OEILLON",45.3895622059041,4.61581342439134,"O3","EEA France","µg/m³",35.5,"2016-11-29T02:00:00+01:00","France"
"FR","GONFREVILLE-L'ORCHER","Gonfreville l Orcher",49.50273000006,0.232485999671531,"SO2","eea","µg/m³",2.9,"2024-09-16T14:00:00+02:00","France"
"FR","MONTLUÇON","Montluçon",46.3407199997582,2.59394499958895,"NO","eea","µg/m³",4.1,"2024-03-11T10:00:00+01:00","France"
"FR","AURILLAC","Aurillac-Lagarde",44.9200800000815,2.44108199977878,"O3","eea","µg/m³",58.8,"2024-09-16T14:00:00+02:00","France"
"FR","DONGES","LA MEGRETAIS",47.3227039997187,-2.03924400015057,"PM2.5","eea","µg/m³",3.7,"2024-09-16T08:00:00+02:00","France"
"FR","SAINT-PAUL","Plateau Caillou",-21.0221120002753,55.2667729995738,"NO2","eea","µg/m³",8,"2024-09-16T08:00:00+02:00","France"
"FR","ÉPINAL","Epinal",48.1727800002807,6.45281099995298,"NO2","eea","µg/m³",11.4,"2024-07-30T13:00:00+02:00","France"
"FR","ATMO NOUVELLE-AQUITAINE","NET-FR058A",43.310833,-0.391111,"O3","EEA France","µg/m³",26.4,"2024-03-04T08:00:00+01:00","France"
"FR","ATMO NOUVELLE-AQUITAINE","NET-FR058A",46.586918,0.358583,"NO","EEA France","µg/m³",5.8,"2024-03-04T08:00:00+01:00","France"
"FR","ATMO OCCITANIE","NET-FR068A",43.096943,-0.038889,"O3","EEA France","µg/m³",86.4,"2024-03-04T08:00:00+01:00","France"
"FR","ATMO OCCITANIE","NET-FR068A",43.58722,1.443889,"PM2.5","EEA France","µg/m³",2.4,"2024-03-04T08:00:00+01:00","France"
"FR","ATMO NOUVELLE-AQUITAINE","NET-FR058A",46.5909,0.3404,"PM10","EEA France","µg/m³",28.9,"2024-03-04T07:00:00+01:00","France"
"FR","ATMO NOUVELLE-AQUITAINE","NET-FR058A",45.89,0.9,"O3","EEA France","µg/m³",7.2,"2024-03-04T08:00:00+01:00","France"
"FR","ATMO OCCITANIE","NET-FR068A",43.643055,1.46765,"NO","EEA France","µg/m³",291.8,"2024-03-04T08:00:00+01:00","France"
"FR","Var","FR03067",43.3987241550087,6.07610576710319,"O3","EEA France","µg/m³",62.5,"2024-01-29T18:00:00+01:00","France"
"FR","Yonne","FR26016",48.2005841475738,3.277224836372,"NO","EEA France","µg/m³",67,"2024-01-29T18:00:00+01:00","France"
"FR","Nord","FR10029",50.9959079994751,2.365994,"NO","EEA France","µg/m³",4.9,"2024-01-29T18:00:00+01:00","France"
"FR","Bouches-du-Rhône","FR03014",43.3480529322015,5.36065154221904,"PM10","EEA France","µg/m³",25.5,"2024-01-29T18:00:00+01:00","France"
"FR","Bouches-du-Rhône","FR02029",43.3995726680061,5.11471976688564,"PM10","EEA France","µg/m³",26.2,"2024-01-29T17:00:00+01:00","France"
"FR","Bouches-du-Rhône","FR03037",43.2831503020971,5.51208953281591,"O3","EEA France","µg/m³",89.5,"2024-01-29T17:00:00+01:00","France"
"FR","Seine-Maritime","FR05010",49.5289242164163,0.35873322556029,"SO2","EEA France","µg/m³",1.9,"2024-01-01T01:00:00+01:00","France"
"FR","","FR20031",45.7078189856086,4.86440421296573,"SO2","EEA France","µg/m³",3.53,"2018-01-18T01:00:00+01:00","France"
"FR","","FR09399",46.3217459318821,-0.46597230754791,"NO2","EEA France","µg/m³",6,"2021-03-19T05:00:00+01:00","France"
"FR","","FR19021",47.7522102114299,-3.37565324205297,"O3","EEA France","µg/m³",76,"2017-05-18T17:00:00+02:00","France"
"FR","","FR02019",43.4572219994639,5.244303,"SO2","EEA France","µg/m³",1.2,"2020-02-18T10:00:00+01:00","France"
"FR","","FR04143",48.8594439994682,2.351111,"CO","EEA France","µg/m³",225,"2018-04-25T02:00:00+02:00","France"
"FR","","FR06133",50.0930799994718,3.850003,"O3","EEA France","µg/m³",42.38,"2018-04-25T02:00:00+02:00","France"
"FR","MONTIERCHAUME","Montierchaume",46.8645299998696,1.77194400005214,"O3","eea","µg/m³",32.5,"2024-09-18T23:00:00+02:00","France"
"FR","MONTAUBAN","Montauban",44.0128559998603,1.37530519955676,"PM2.5","eea","µg/m³",4.9,"2024-09-18T23:00:00+02:00","France"
"FR","SAINT-MALO","StMalo Rocabey",48.6530599999378,-2.00267999980351,"O3","eea","µg/m³",92.7,"2024-09-18T23:00:00+02:00","France"
"FR","SALON-DE-PROVENCE","SALON",43.6390039998181,5.1010969997566,"O3","eea","µg/m³",57.4,"2024-09-18T23:00:00+02:00","France"
"FR","DIJON","Dijon Ardennes",47.3513680002532,5.07070600015813,"PM2.5","eea","µg/m³",8,"2024-09-16T08:00:00+02:00","France"
"FR","MONTOIR-DE-BRETAGNE","CAME",47.3210799999773,-2.12732200005993,"NO","eea","µg/m³",5.1,"2024-03-11T09:00:00+01:00","France"
"FR","MONDEVILLE","Caen Montalivet",49.1798319998666,-0.329750000098078,"NO2","eea","µg/m³",31.1,"2024-09-18T23:00:00+02:00","France"
"FR","MIRIBEL","COTIERE AIN",45.8232230002939,4.95395800025814,"O3","eea","µg/m³",67.7,"2024-09-18T23:00:00+02:00","France"
"FR","NANTES","FRERES GONCOURT",47.2041199999351,-1.56481099993071,"CO","eea","µg/m³",495,"2024-03-11T09:00:00+01:00","France"
"FR","NANTES","FRERES GONCOURT",47.2041199999351,-1.56481099993071,"NO2","eea","µg/m³",42.9,"2024-09-18T23:00:00+02:00","France"
"FR","BORDEAUX","GRAND PARC",44.8612099998848,-0.580370000254293,"NO","eea","µg/m³",2.3,"2024-03-11T10:00:00+01:00","France"
"FR","ALBERTVILLE","Albertville",45.6750000001249,6.38972200044397,"NO2","eea","µg/m³",16.5,"2024-09-18T23:00:00+02:00","France"
"FR","VILLENTROIS-FAVEROLLES-EN-BERRY","Faverolles",47.1701659999984,1.40969400041023,"O3","eea","µg/m³",30.4,"2024-09-18T23:00:00+02:00","France"
"FR","LA MULATIÈRE","A7 SUD LYONNAIS",45.7200240000445,4.8181560001567,"NO2","eea","µg/m³",25.7,"2024-09-18T23:00:00+02:00","France"
"FR","LE LAMENTIN","Lamentin",14.6106530003893,-61.002586000064,"O3","eea","µg/m³",10.5,"2024-09-18T23:00:00+02:00","France"
"FR","NICE","NICE OUEST BOTANIQUE",43.6851900000749,7.21117399998479,"O3","eea","µg/m³",44.5,"2024-09-18T23:00:00+02:00","France"
"FR","TERNAY","TERNAY",45.6018999997678,4.80220000011266,"O3","eea","µg/m³",37.8,"2024-09-18T23:00:00+02:00","France"
"FR","VERQUIGNEUL","Noeux-les-Mines",50.4897199999063,2.66641999963169,"NO","eea","µg/m³",1.3,"2024-03-11T10:00:00+01:00","France"
"FR","RENNES","Rennes Thabor",48.1152100001935,-1.67308799988918,"O3","eea","µg/m³",74.3,"2024-09-18T23:00:00+02:00","France"
"FR","AMBÈS","AMBES",45.0147800000761,-0.533942000420932,"NO2","eea","µg/m³",11.2,"2024-09-18T23:00:00+02:00","France"
"FR","ORLÉANS","La_Source-CNRS",47.8377500002934,1.9446669999777,"PM10","eea","µg/m³",35,"2024-09-18T23:00:00+02:00","France"
"FR","SAINT-NAZAIRE-LE-DÉSERT","Drôme Rurale Sud-SND",44.5694430002562,5.27897200043165,"PM2.5","eea","µg/m³",3.9,"2024-09-18T23:00:00+02:00","France"
"FR","STRASBOURG","Strasbourg Nord",48.6103630000932,7.78163100034898,"NO2","eea","µg/m³",18.5,"2024-09-18T23:00:00+02:00","France"
"FR","STRASBOURG","Strasbourg Nord",48.6103630000932,7.78163100034898,"O3","eea","µg/m³",39.4,"2024-09-18T23:00:00+02:00","France"
"FR","ORLÉANS","Gambetta",47.9070800000607,1.90113899993502,"NO","eea","µg/m³",25.9,"2024-03-11T10:00:00+01:00","France"
"FR","CHERBOURG-EN-COTENTIN","Cherbourg Hotel de Ville",49.6422500002307,-1.62436100013966,"NO","eea","µg/m³",3.9,"2024-03-11T10:00:00+01:00","France"
"FR","CAEN","Caen Chemin-Vert",49.1922200000328,-0.391111000326555,"O3","eea","µg/m³",60,"2024-09-18T23:00:00+02:00","France"
"FR","ANNECY","ANNECY Rocade",45.9096999999883,6.11824999958726,"NO2","eea","µg/m³",38.8,"2024-09-18T23:00:00+02:00","France"
"FR","ANNEMASSE","ANNEMASSE",46.1958299999168,6.24055600011761,"PM10","eea","µg/m³",14.5,"2024-09-18T23:00:00+02:00","France"
"FR","PUTEAUX","LA DEFENSE",48.8913880002415,2.24055599987591,"NO2","eea","µg/m³",20.7,"2024-09-18T23:00:00+02:00","France"
"FR","DOUAI","Douai Theuriet",50.378220000192,3.06585999960954,"PM2.5","eea","µg/m³",5.9,"2024-09-17T23:00:00+02:00","France"
"FR","FONTAINEBLEAU","Zone Rurale SE",48.3547000001938,2.6453000000409,"NO","eea","µg/m³",1.6,"2024-03-11T10:00:00+01:00","France"
"FR","NEUILLY-SUR-SEINE","NEUILLY-SUR-SEINE",48.8813900000285,2.27805599983326,"NO2","eea","µg/m³",14.9,"2024-09-17T23:00:00+02:00","France"
"FR","SAINT-AMAND-LES-EAUX","Saint Amand",50.456470000169,3.42794000027044,"O3","eea","µg/m³",56.6,"2024-09-17T23:00:00+02:00","France"
"FR","VERSAILLES","VERSAILLES",48.7991680000162,2.13055599976146,"NO2","eea","µg/m³",10.9,"2024-09-17T23:00:00+02:00","France"
"FR","GRENOBLE","Grenoble Boulevards",45.1806900002892,5.72062499982689,"NO2","eea","µg/m³",14.5,"2024-09-16T23:00:00+02:00","France"
"FR","SAINT-DIZIER","St DIZIER L. Michel",48.6458359997777,4.96611099961485,"NO2","eea","µg/m³",5.4,"2024-09-16T23:00:00+02:00","France"
"FR","TOULOUSE","Toulouse Mazades",43.6236080001413,1.43853099990713,"PM2.5","eea","µg/m³",4.9,"2024-09-16T23:00:00+02:00","France"
"FR","SAINT-NAZAIRE","LEON BLUM",47.2641200000181,-2.24985799984573,"PM10","eea","µg/m³",5.8,"2024-09-16T23:00:00+02:00","France"
"FR","OUTREAU","Outreau",50.6943499999625,1.57657000000044,"PM10","eea","µg/m³",7,"2024-09-16T08:00:00+02:00","France"
"FR","CALAIS","Calais Berthelot",50.9472900000261,1.84308000007845,"PM2.5","eea","µg/m³",3.8,"2024-09-16T23:00:00+02:00","France"
"FR","BÉTHENY","BETHENY",49.2822199998627,4.05111100029618,"O3","eea","µg/m³",60.4,"2024-09-16T23:00:00+02:00","France"
"FR","AMIENS","TRAFIC AMIENS",49.8772200002389,2.28249999967978,"PM10","eea","µg/m³",24.73,"2018-01-05T11:00:00+01:00","France"
"FR","AVIGNON","AVIGNON   MAIRIE",43.9496729999063,4.80434099984507,"PM2.5","eea","µg/m³",5.2,"2024-09-16T14:00:00+02:00","France"
"FR","VILLIERS-EN-BOIS","Zoodyssée Chizé",46.1432340000161,-0.395913000373364,"PM10","eea","µg/m³",9,"2024-09-16T14:00:00+02:00","France"
"FR","AURILLAC","Aurillac-Lagarde",44.9200800000815,2.44108199977878,"PM10","eea","µg/m³",5,"2024-09-16T14:00:00+02:00","France"
"FR","LE HAVRE","Le Havre Lafaurie-montant",49.5001870002225,0.110903000112771,"PM2.5","eea","µg/m³",9.5,"2024-09-16T08:00:00+02:00","France"
"FR","LE HAVRE","Le Havre Lafaurie-montant",49.5001870002225,0.110903000112771,"NO","eea","µg/m³",17.4,"2024-03-11T10:00:00+01:00","France"
"FR","SAINT-JOSEPH","Grand Coude",-21.2943300002787,55.6279300001449,"PM2.5","eea","µg/m³",3.3,"2024-09-16T08:00:00+02:00","France"
"FR","ATMO NOUVELLE-AQUITAINE","NET-FR058A",46.162556,-1.153603,"NO2","EEA France","µg/m³",21.5,"2024-03-04T08:00:00+01:00","France"
"FR","ATMO OCCITANIE","NET-FR068A",43.575558,1.418611,"PM2.5","EEA France","µg/m³",7.7,"2024-01-29T18:00:00+01:00","France"
"FR","ATMO OCCITANIE","NET-FR068A",43.605,3.8746,"NO2","EEA France","µg/m³",21.6,"2024-03-04T08:00:00+01:00","France"
"FR","LIG'AIR","NET-FR061A",48.006935,2.74001,"NO","EEA France","µg/m³",107.7,"2024-03-04T08:00:00+01:00","France"
"FR","AIR PAYS DE LA LOIRE","NET-FR035A",47.322826,-2.039853,"PM10","EEA France","µg/m³",16.2,"2024-01-29T17:00:00+01:00","France"
"FR","QUALITAIR CORSE","NET-FR065A",41.949223,8.757583,"NO","EEA France","µg/m³",0.6,"2024-02-01T00:00:00+01:00","France"
"FR","Bouches-du-Rhône","FR02021",43.3313927085815,5.11777403885164,"SO2","EEA France","µg/m³",1.9,"2024-01-29T18:00:00+01:00","France"
"FR","Bouches-du-Rhône","FR02013",43.4588738424815,4.93416737793045,"PM2.5","EEA France","µg/m³",10.2,"2024-01-29T17:00:00+01:00","France"
"FR","Bouches-du-Rhône","FR03043",43.3060996358468,5.39579363613379,"PM10","EEA France","µg/m³",17.2,"2024-01-29T18:00:00+01:00","France"
"FR","Eure-et-Loir","FR34046",48.7314125600919,1.36388514642015,"O3","EEA France","µg/m³",37.5,"2024-01-29T18:00:00+01:00","France"
"FR","Nord","FR10029",50.9959079994751,2.365994,"PM2.5","EEA France","µg/m³",2.65,"2017-12-31T19:00:00+01:00","France"
"FR","Loir-et-Cher","FR34061",47.5945165359368,1.30173969506476,"NO","EEA France","µg/m³",2.2,"2024-01-29T18:00:00+01:00","France"
"FR","Reunion","FR38020",-21.009739859322,55.2727106111753,"PM2.5","EEA France","µg/m³",5,"2024-01-29T14:00:00+01:00","France"
"FR","Paris","FR04012",48.8277822163547,2.32749896854232,"NO2","EEA France","µg/m³",35.7,"2024-01-09T10:00:00+01:00","France"
"FR","","FR21016",49.1752491940393,-0.35361103181024,"PM10","EEA France","µg/m³",22.2,"2023-01-11T07:00:00+01:00","France"
"FR","","FR19010",48.1108129462492,-1.68282300489394,"O3","EEA France","µg/m³",33.4,"2022-12-01T13:00:00+01:00","France"
"FR","","FR32014",46.7972219994643,4.853889,"O3","EEA France","µg/m³",117.18,"2018-07-18T14:00:00+02:00","France"
"FR","","FR19010",48.0926809994664,-1.690319,"O3","EEA France","µg/m³",84.75,"2018-04-25T16:00:00+02:00","France"
"FR","","FR06011",50.3274999994726,3.4,"PM10","EEA France","µg/m³",10.4,"2018-04-25T02:00:00+02:00","France"
"FR","","FR34025",47.4193389994652,0.684139,"NO2","EEA France","µg/m³",5.18,"2018-04-25T02:00:00+02:00","France"
"FR","","Martigues La Gatasse",43.361116575414,5.05833251650145,"SO2","EEA France","µg/m³",0.25,"2017-03-28T18:00:00+02:00","France"
"FR","MONTANDON","Montandon Baresans",47.2946400002569,6.82586099958978,"O3","eea","µg/m³",33.8,"2024-09-18T23:00:00+02:00","France"
"FR","SAILLAT-SUR-VIENNE","SAILLAT - Ipaper",45.87583500017,0.823951000371826,"PM10","eea","µg/m³",4.2,"2024-09-16T08:00:00+02:00","France"
"FR","ROUEN","Rouen Proxi Quai de Paris",49.4366999998995,1.09883799978172,"PM2.5","eea","µg/m³",8.6,"2024-09-16T08:00:00+02:00","France"
"FR","KOUROU","Kourou Gaston Monnerville Brady",5.16424799969236,-52.6464900004207,"PM10","eea","µg/m³",19.8,"2024-09-18T23:00:00+02:00","France"
"FR","BILLÈRE","BILLERE",43.3108000001887,-0.391543000146688,"NO","eea","µg/m³",0.3,"2024-03-11T08:00:00+01:00","France"
"FR","LYON 7E ARRONDISSEMENT","GERLAND",45.7352900001264,4.8297939998526,"O3","eea","µg/m³",13.4,"2024-03-18T08:00:00+01:00","France"
"FR","PEILLON","PEILLON",43.7865829996798,7.37328299968828,"PM10","eea","µg/m³",6.9,"2024-09-18T23:00:00+02:00","France"
"FR","TARTAS","TARTAS Pelletrin",43.8388750000506,-0.812029999920392,"SO2","eea","µg/m³",0.8,"2024-09-18T23:00:00+02:00","France"
"FR","DIÈME","HAUT BEAUJOLAIS",45.9614100000765,4.46571099955156,"NO2","eea","µg/m³",10.75,"2016-12-05T02:00:00+01:00","France"
"FR","MONTARGIS","Montargis_trafic",48.0069349997759,2.7401109996672,"NO2","eea","µg/m³",42.4,"2024-09-18T23:00:00+02:00","France"
"FR","FORT-DE-FRANCE","Concorde",14.6138439998999,-61.063490000358,"NO2","eea","µg/m³",25.7,"2024-09-18T23:00:00+02:00","France"
"FR","LIMOGES","LIMOGES - Aine",45.8299749997519,1.25477199998511,"PM10","eea","µg/m³",21.6,"2024-09-16T08:00:00+02:00","France"
"FR","MONTARGIS","Montargis Les Cites",48.0014499999424,2.72617999990292,"PM2.5","eea","µg/m³",13.2,"2024-09-18T23:00:00+02:00","France"
"FR","SAINT-PIERRE","Ligne Paradis",-21.3128950000391,55.4741939995754,"NO2","eea","µg/m³",12.9,"2024-09-18T23:00:00+02:00","France"
"FR","CHAMBÉRY","PASTEUR",45.564719999865,5.92833299988358,"PM10","eea","µg/m³",6.5,"2024-09-18T23:00:00+02:00","France"
"FR","FRÉMAINVILLE","Zone Rurale NO",49.0630870001199,1.86638099958461,"O3","eea","µg/m³",90.4,"2024-09-18T23:00:00+02:00","France"
"FR","SAINT-GERMAIN-SUR-RHÔNE","St Germain/Rhône",46.0722240002064,5.82083300042506,"O3","eea","µg/m³",42.9,"2024-09-18T23:00:00+02:00","France"
"FR","SAINT-NAZAIRE-LE-DÉSERT","Drôme Rurale Sud-SND",44.5694430002562,5.27897200043165,"NO","eea","µg/m³",1.7,"2024-03-11T10:00:00+01:00","France"
"FR","PÉRIGUEUX","PERIGUEUX",45.1898229998141,0.72718400006274,"PM10","eea","µg/m³",10.6,"2024-09-18T23:00:00+02:00","France"
"FR","SAINT-BRIEUC","Saint Brieuc Balzac",48.5135100002817,-2.74952999981289,"NO2","eea","µg/m³",6.2,"2024-09-18T23:00:00+02:00","France"
"FR","ÉVREUX","Evreux Centre",49.0213399997733,1.14831899956664,"PM10","eea","µg/m³",54.7,"2024-09-18T23:00:00+02:00","France"
"FR","STRASBOURG","Strasbourg A35 Remparts",48.5880550000064,7.72972199987815,"NO2","eea","µg/m³",51.2,"2024-09-18T23:00:00+02:00","France"
"FR","CHAMONIX-MONT-BLANC","CHAMONIX",45.9224999998724,6.86999999955273,"PM10","eea","µg/m³",16.3,"2024-09-18T23:00:00+02:00","France"
"FR","MULHOUSE","Mulhouse Nord",47.7574349997438,7.34729400010354,"NO","eea","µg/m³",43.6,"2024-03-11T09:00:00+01:00","France"
"FR","SAINT-RÉMY-SUR-AVRE","Saint-Remy",48.7608869997683,1.23363899997554,"CO","eea","µg/m³",296,"2024-03-11T10:00:00+01:00","France"
"FR","MUNCHHAUSEN","Nord-Est Alsace",48.9193569998863,8.15845799983553,"SO2","eea","µg/m³",0,"2019-09-13T13:00:00+02:00","France"
"FR","VILLERS-LÈS-NANCY","Nancy-Brabois 2",48.6569440000801,6.1360219996737,"NO2","eea","µg/m³",4.1,"2024-09-18T23:00:00+02:00","France"
"FR","BORDEAUX","Bordeaux_GAUTIER",44.8338240000015,-0.598524999757059,"NO2","eea","µg/m³",65.4,"2024-09-18T23:00:00+02:00","France"
"FR","GAILLARD","GAILLARD",46.1936899998302,6.21485799988769,"NO","eea","µg/m³",2,"2024-02-22T09:00:00+01:00","France"
"FR","DAMBENOIS","Dambenois Citoyen",47.5381930001173,6.86836099996066,"O3","eea","µg/m³",65.9,"2024-09-18T23:00:00+02:00","France"
"FR","AYTRÉ","Aytré",46.1351360000773,-1.11708600006922,"NO2","eea","µg/m³",5.5,"2024-09-18T23:00:00+02:00","France"
"FR","PARIS 12E ARRONDISSEMENT","Bld peripherique Est",48.8386150001873,2.4127809998591,"NO2","eea","µg/m³",45.3,"2024-09-17T23:00:00+02:00","France"
"FR","PARIS 18E ARRONDISSEMENT","PARIS 18eme",48.8916659998976,2.34666699998761,"PM2.5","eea","µg/m³",9.6,"2024-09-16T08:00:00+02:00","France"
"FR","TREMBLAY-EN-FRANCE","TREMBLAY-EN-FRANCE",48.9555499999541,2.57527799990011,"O3","eea","µg/m³",61.5,"2024-09-17T23:00:00+02:00","France"
"FR","AIX-EN-PROVENCE","AIX PLATANES",43.5557800002651,5.46123199960536,"O3","eea","µg/m³",37.2,"2024-09-17T23:00:00+02:00","France"
"FR","MARSEILLE 8E ARRONDISSEMENT","MARSEILLE RABATAU",43.2764499999454,5.39735999974862,"PM2.5","eea","µg/m³",14.3,"2024-09-16T08:00:00+02:00","France"
"FR","MARIGNANE","Marignane",43.4165300001598,5.2222810000055,"PM10","eea","µg/m³",3.4,"2024-09-17T23:00:00+02:00","France"
"FR","LA SEYNE-SUR-MER","LA SEYNE GENOUD",43.1015659997901,5.87540400013688,"NO2","eea","µg/m³",10.6,"2024-09-17T23:00:00+02:00","France"
"FR","SAINT-DENIS","Auto A1 -Saint-Denis",48.9252779998288,2.35666699991635,"PM10","eea","µg/m³",16.4,"2024-09-15T17:00:00+02:00","France"
"FR","NANTES","LA CHAUVINIERE",47.252776999898,-1.57333299992586,"PM2.5","eea","µg/m³",3.7,"2024-09-16T23:00:00+02:00","France"
"FR","CREIL","Faiencerie Creil",49.2595520002579,2.4743970003557,"NO2","eea","µg/m³",14.4,"2024-09-16T23:00:00+02:00","France"
"FR","CHOLET","SAINT EXUPERY",47.0544429999979,-0.886110999943241,"PM10","eea","µg/m³",6.5,"2024-09-16T08:00:00+02:00","France"
"FR","CHARLEVILLE-MÉZIÈRES","CHARLEVILLE",49.7452769999387,4.71916699992436,"O3","eea","µg/m³",64.5,"2024-09-16T23:00:00+02:00","France"
"FR","SAINT-OMER","St Omer Ribot",50.7482300002354,2.25977999995667,"PM10","eea","µg/m³",8.6,"2024-09-16T23:00:00+02:00","France"
"FR","SAINT-OMER","St Omer Ribot",50.7482300002354,2.25977999995667,"O3","eea","µg/m³",54,"2024-09-16T23:00:00+02:00","France"
"FR","TOULOUSE","Toulouse Mazades",43.6236080001413,1.43853099990713,"PM10","eea","µg/m³",9.9,"2024-09-16T23:00:00+02:00","France"
"FR","GRENOBLE","Grenoble Les Frenes",45.1619000003116,5.7356000000548,"O3","eea","µg/m³",81.1,"2024-09-16T23:00:00+02:00","France"
"FR","GAUDONVILLE","GAUDONVILLE",43.8839340002493,0.845616999585557,"O3","eea","µg/m³",69.4,"2024-09-16T23:00:00+02:00","France"
"FR","ALBI","ALBI DELMAS",43.9277700001112,2.14589699968727,"NO","eea","µg/m³",1.1,"2024-03-11T10:00:00+01:00","France"
"FR","LOURDES","LOURDES LAPACCA",43.0962500002002,-0.0404969998324175,"PM10","eea","µg/m³",10.1,"2024-09-16T23:00:00+02:00","France"
"FR","DUNKERQUE","St Pol mer - cheminots",51.0327599998369,2.33235799993157,"PM10","eea","µg/m³",12.6,"2024-09-16T23:00:00+02:00","France"
"FR","CHAMP-SUR-DRAC","Champ sur Drac",45.0795400001299,5.72865300007762,"O3","eea","µg/m³",76.8,"2024-09-16T23:00:00+02:00","France"
"FR","REIMS","DOUMER",49.2507319999004,4.02306399992139,"NO","eea","µg/m³",51.3,"2024-03-11T09:00:00+01:00","France"
"FR","BÉTHENY","BETHENY",49.2822199998627,4.05111100029618,"NO","eea","µg/m³",13.1,"2024-03-11T09:00:00+01:00","France"
"FR","TOURCOING","Tourcoing Houpline",50.7333340002115,3.17361100003655,"NO2","eea","µg/m³",7,"2024-09-16T23:00:00+02:00","France"
"FR","ANGERS","BEAUX ARTS",47.4685129999158,-0.556052999873588,"NO","eea","µg/m³",30.2,"2024-03-11T09:00:00+01:00","France"
"FR","ARREST","Arrest",50.1294479997896,1.61083299988321,"O3","eea","µg/m³",55.4,"2024-09-16T23:00:00+02:00","France"
"FR","AVIGNON","Avignon Rocade De Gaulle",43.9314000002095,4.82687499979534,"NO","eea","µg/m³",29.4,"2024-03-11T10:00:00+01:00","France"
"FR","SAINT-GÉLY-DU-FESC","Montpellier St Gely",43.6926000001537,3.80020999993257,"O3","eea","µg/m³",77.7,"2024-09-16T14:00:00+02:00","France"
"FR","MOULINS","Moulins Centre",46.5619739999054,3.34063890024972,"NO","eea","µg/m³",0.7,"2024-03-08T08:00:00+01:00","France"
"FR","SAZE","Gard Rhodanien2",43.9426000001532,4.67957999976296,"O3","eea","µg/m³",90,"2024-09-16T14:00:00+02:00","France"
"FR","NÎMES","Nimes Gauzy",43.8344000002437,4.37439999976558,"PM10","eea","µg/m³",14.1,"2024-09-16T14:00:00+02:00","France"
"FR","NOTRE-DAME-DE-BLIQUETUIT","Maison Parc Brotonne",49.4982950002272,0.758833000385088,"SO2","eea","µg/m³",2.2,"2024-09-16T14:00:00+02:00","France"
"FR","ANGOULÊME","ANGOULEME-GAMBETTA",45.651463000225,0.162390999735801,"PM10","eea","µg/m³",15.2,"2024-09-16T08:00:00+02:00","France"
"FR","ANGOULÊME","ANGOULEME-GAMBETTA",45.651463000225,0.162390999735801,"NO","eea","µg/m³",16.5,"2024-03-11T08:00:00+01:00","France"
"FR","HAYANGE","HAYANGE-MARSPICH",49.3374000000503,6.08207000027807,"SO2","eea","µg/m³",2.7,"2019-10-30T14:00:00+01:00","France"
"FR","SAINT-JOSEPH","Grand Coude",-21.2943300002787,55.6279300001449,"PM10","eea","µg/m³",6.1,"2024-09-16T08:00:00+02:00","France"
"FR","ATMO HAUTS DE FRANCE","NET-FR074A",49.9025,2.3046,"PM2.5","EEA France","µg/m³",12.2,"2024-03-04T08:00:00+01:00","France"
"FR","ATMO NOUVELLE-AQUITAINE","NET-FR058A",46.58389,0.345556,"O3","EEA France","µg/m³",7.5,"2024-03-04T08:00:00+01:00","France"
"FR","ATMO NOUVELLE-AQUITAINE","NET-FR058A",43.47972,-1.488056,"PM10","EEA France","µg/m³",2.4,"2024-03-04T07:00:00+01:00","France"
"FR","ATMO BOURGOGNE-FRANCHE-COMTE","NET-FR076A",46.671307,5.556806,"O3","EEA France","µg/m³",53.2,"2024-03-04T08:00:00+01:00","France"
"FR","ATMO NOUVELLE-AQUITAINE","NET-FR058A",45.89,0.9,"NO2","EEA France","µg/m³",11.9,"2024-03-04T08:00:00+01:00","France"
"FR","ATMO OCCITANIE","NET-FR068A",43.63028,0.179722,"NO","EEA France","µg/m³",0.2,"2024-03-01T10:00:00+01:00","France"
"FR","Côte-d'Or","FR26010",47.3455490718848,5.00222374385535,"NO2","EEA France","µg/m³",3.88,"2018-07-06T14:00:00+02:00","France"
"FR","Côte-d'Or","FR26010",47.3455490718848,5.00222374385535,"O3","EEA France","µg/m³",40.6,"2024-01-29T18:00:00+01:00","France"
"FR","Bouches-du-Rhône","FR03021",43.52404453793,5.44957577219403,"NO","EEA France","µg/m³",43.2,"2024-01-29T18:00:00+01:00","France"
"FR","Bouches-du-Rhône","FR02001",43.4858630407889,5.17194245048405,"SO2","EEA France","µg/m³",1.6,"2020-05-03T11:00:00+02:00","France"
"FR","Nord","FR10029",50.9959079994751,2.365994,"PM10","EEA France","µg/m³",12,"2023-04-04T06:00:00+02:00","France"
"FR","Morbihan","FR19032",47.742485358103,-3.3948053239104,"PM2.5","EEA France","µg/m³",16.9,"2024-01-29T18:00:00+01:00","France"
"FR","Bouches-du-Rhône","FR03030",43.453461514164,5.4671019033872,"NO2","EEA France","µg/m³",26.5,"2019-12-31T11:00:00+01:00","France"
"FR","Gironde","FR31003",44.849695025703,-0.543888582031301,"NO","EEA France","µg/m³",6.8,"2024-01-08T13:00:00+01:00","France"
"FR","Puy-de-Dôme","FR07034",45.7757153069085,3.09625023923328,"PM2.5","EEA France","µg/m³",0.9,"2023-12-20T13:00:00+01:00","France"
"FR","","FR20031",45.7078189856086,4.86440421296573,"NO2","EEA France","µg/m³",34.7,"2023-01-10T10:00:00+01:00","France"
"FR","","FR19010",48.1108129462492,-1.68282300489394,"NO2","EEA France","µg/m³",16.5,"2022-12-01T13:00:00+01:00","France"
"FR","","FR02019",43.4572219994639,5.244303,"O3","EEA France","µg/m³",57.8,"2020-02-18T10:00:00+01:00","France"
"FR","","Serv Tech Guipry",47.8319337214448,-1.83632712064428,"PM10","EEA France","µg/m³",16.2,"2019-12-03T14:00:00+01:00","France"
"FR","","FR34061",47.5946059994655,1.303647,"NO2","EEA France","µg/m³",4.6,"2018-04-25T02:00:00+02:00","France"
"FR","","FR34043",48.3904559994671,1.955953,"O3","EEA France","µg/m³",64.35,"2018-04-25T02:00:00+02:00","France"
"FR","","FR10004",51.0513889994753,2.423056,"PM10","EEA France","µg/m³",10.65,"2018-04-25T02:00:00+02:00","France"
"FR","","FR06003",50.3666639994728,3.082778,"PM2.5","EEA France","µg/m³",1.3,"2018-04-25T02:00:00+02:00","France"
"FR","","St Pol/mer Nord",51.0338297678657,2.33519753052722,"CO","EEA France","µg/m³",597.5,"2017-01-24T13:00:00+01:00","France"
"FR","","Vienne Centre",45.5259808277432,4.8754085751962,"O3","EEA France","µg/m³",0,"2016-12-05T02:00:00+01:00","France"
"FR","","Vienne Centre",45.5259808277432,4.8754085751962,"NO2","EEA France","µg/m³",27.5,"2016-12-05T02:00:00+01:00","France"
"FR","","MOULINS",46.5618635984186,3.3310878208078,"NO2","EEA France","µg/m³",29,"2016-12-01T21:00:00+01:00","France"
"FR","","Home",45.271894982689,5.6790270589692,"PM10","airgradient","µg/m³",1.991567453,"2024-09-19T10:00:00+02:00","France"
"FR","MONTAUBAN","Montauban",44.0128559998603,1.37530519955676,"NO","eea","µg/m³",1.3,"2024-03-11T10:00:00+01:00","France"
"FR","SAILLAT-SUR-VIENNE","SAILLAT - Ipaper",45.87583500017,0.823951000371826,"SO2","eea","µg/m³",1.7,"2024-09-18T23:00:00+02:00","France"
"FR","PANTIN","RN2-PANTIN",48.9022199998218,2.39083299971474,"PM10","eea","µg/m³",28.1,"2024-09-16T08:00:00+02:00","France"
"FR","TOURS","La Bruyère",47.4190829997127,0.68294399981745,"NO","eea","µg/m³",4.5,"2024-03-11T10:00:00+01:00","France"
"FR","BRIVE-LA-GAILLARDE","BRIVE - Dalton",45.1587370002402,1.53725900002356,"PM10","eea","µg/m³",8.6,"2024-09-16T08:00:00+02:00","France"
"FR","LACQ","LACQ",43.4112300000173,-0.617727999921422,"NO2","eea","µg/m³",10.2,"2024-09-18T23:00:00+02:00","France"
"FR","HÉMING","Heming",48.6947249998427,6.96527499968453,"PM10","eea","µg/m³",42,"2024-09-18T23:00:00+02:00","France"
"FR","ÉPINAL","Epinal",48.1726529999482,6.45281650033746,"PM10","eea","µg/m³",54.9,"2024-09-18T23:00:00+02:00","France"
"FR","SAINT-LÔ","Saint-Lô Eglise",49.1163900000927,-1.08472200006952,"NO","eea","µg/m³",17.2,"2024-03-11T10:00:00+01:00","France"
"FR","DIEPPE","Dieppe Golf",49.9204900002416,1.04789199958368,"O3","eea","µg/m³",68.2,"2024-09-18T23:00:00+02:00","France"
"FR","MONTARGIS","Montargis Les Cites",48.0014499999424,2.72617999990292,"NO2","eea","µg/m³",17.7,"2024-09-18T23:00:00+02:00","France"
"FR","BESANÇON","Besancon Mégevand",47.2359730002171,6.02361100038842,"NO","eea","µg/m³",37.9,"2024-03-11T10:00:00+01:00","France"
"FR","LA NOUAILLE","LA NOUAILLE - MERA",45.8050899997107,2.06233299994463,"O3","eea","µg/m³",49.4,"2024-09-18T23:00:00+02:00","France"
"FR","NICE","NICE ARSON",43.7020760000666,7.28625599991525,"NO","eea","µg/m³",18.8,"2024-03-11T10:00:00+01:00","France"
"FR","SAINT-JUNIEN","ST JUNIEN - Fontaine",45.8848500001393,0.89843099970453,"NO","eea","µg/m³",0.9,"2024-03-11T10:00:00+01:00","France"
"FR","BURES-EN-BRAY","Bures-en-bray",49.7812199997992,1.34508299968839,"O3","eea","µg/m³",66.6,"2024-09-18T23:00:00+02:00","France"
"FR","BLOIS","Blois nord",47.5942569998293,1.30266699988141,"O3","eea","µg/m³",32.5,"2024-09-18T23:00:00+02:00","France"
"FR","VERQUIGNEUL","Noeux-les-Mines",50.4897199999063,2.66641999963169,"PM10","eea","µg/m³",19.6,"2024-09-16T08:00:00+02:00","France"
"FR","BAYONNE","SAINT-CROUTS",43.4798199999506,-1.48915700043803,"NO","eea","µg/m³",3.2,"2024-03-11T10:00:00+01:00","France"
"FR","POITIERS","Les Couronneries",46.5869600000919,0.358457999723541,"NO","eea","µg/m³",4.6,"2024-03-11T10:00:00+01:00","France"
"FR","CHERBOURG-EN-COTENTIN","Cherbourg PMF",49.6338900002764,-1.62472220013899,"NO2","eea","µg/m³",8.8,"2024-09-18T23:00:00+02:00","France"
"FR","AMBÈS","AMBES",45.0147800000761,-0.533942000420932,"O3","eea","µg/m³",50,"2024-09-18T23:00:00+02:00","France"
"FR","CHAMBÉRY","Chambéry Trafic",45.5694299999296,5.93298599996747,"NO2","eea","µg/m³",21.9,"2024-09-18T23:00:00+02:00","France"
"FR","LA ROCHELLE","place de VERDUN",46.1626469998923,-1.15368399985315,"O3","eea","µg/m³",56.3,"2024-09-18T23:00:00+02:00","France"
"FR","BOURGES","Bourges-Baffier",47.07504299984,2.40718299994408,"NO2","eea","µg/m³",38.4,"2024-09-18T23:00:00+02:00","France"
"FR","BREST","Brest Mace",48.3861799998886,-4.48660000006197,"NO2","eea","µg/m³",24.8,"2024-09-16T08:00:00+02:00","France"
"FR","ÉVREUX","Evreux Centre",49.0213399997733,1.14831899956664,"SO2","eea","µg/m³",5.25,"2016-12-05T18:00:00+01:00","France"
"FR","TALENCE","TALENCE",44.8004599997874,-0.589397999689418,"NO2","eea","µg/m³",54.2,"2024-09-18T23:00:00+02:00","France"
"FR","SAINT-RÉMY-SUR-AVRE","Saint-Remy",48.7608869997683,1.23363899997554,"PM10","eea","µg/m³",10.1,"2024-09-16T08:00:00+02:00","France"
"FR","MONTLHÉRY","RN20 - MONTLHERY",48.6409299998147,2.26872000042656,"NO","eea","µg/m³",95.4,"2024-03-11T10:00:00+01:00","France"
"FR","MULHOUSE","Mulhouse Sud 2",47.7374150002747,7.30907500027088,"PM10","eea","µg/m³",25.6,"2024-09-18T23:00:00+02:00","France"
"FR","AUXERRE","Auxerre",47.8005750002943,3.57618900035478,"PM2.5","eea","µg/m³",13.5,"2024-09-18T23:00:00+02:00","France"
"FR","VANNES","Vannes UTA",47.6489200000658,-2.76399000037999,"NO","eea","µg/m³",4.9,"2024-03-11T10:00:00+01:00","France"
"FR","TOURS","Pompidou",47.3946379998604,0.704860999999662,"CO","eea","µg/m³",35,"2022-04-04T12:00:00+02:00","France"
"FR","BOURGES","Leblanc",47.0827800000004,2.4053329995665,"PM10","eea","µg/m³",12.7,"2024-09-18T23:00:00+02:00","France"
"FR","LE MESNIL-ESNARD","Mesnil Esnard",49.4061900002854,1.15515000009118,"O3","eea","µg/m³",82.6,"2024-09-18T23:00:00+02:00","France"
"FR","BELLEVILLE-SUR-MEUSE","Belleville sur Meuse",49.1677799998708,5.38746100010222,"PM2.5","eea","µg/m³",9.2,"2024-09-16T08:00:00+02:00","France"
"FR","LES ULIS","LES ULIS",48.6794430002305,2.16555599996121,"O3","eea","µg/m³",70,"2024-09-17T23:00:00+02:00","France"
"FR","THIONVILLE","Thionville-Centre",49.3583370001585,6.15694200014625,"SO2","eea","µg/m³",5,"2019-08-27T10:00:00+02:00","France"
"FR","GONESSE","GONESSE",48.9908300001307,2.44472200025949,"NO2","eea","µg/m³",4.6,"2024-09-17T23:00:00+02:00","France"
"FR","HAGUENAU","Haguenau-Place marché aux bestiaux",48.8183500000267,7.78640900010634,"NO2","eea","µg/m³",9.2,"2024-09-17T23:00:00+02:00","France"
"FR","MAUBEUGE","Maubeuge Joyeuse",50.2793599998152,3.97690999972442,"NO2","eea","µg/m³",5.9,"2024-09-17T23:00:00+02:00","France"
"FR","VALENCIENNES","Valenciennes Acacias",50.3585300000656,3.50804000015779,"PM2.5","eea","µg/m³",12.95,"2017-07-18T22:00:00+02:00","France"
"FR","SAINT-AMAND-LES-EAUX","Saint Amand",50.456470000169,3.42794000027044,"NO","eea","µg/m³",4.8,"2024-03-11T10:00:00+01:00","France"
"FR","ROUBAIX","Roubaix Serres",50.7065350000372,3.18066000012097,"NO2","eea","µg/m³",11,"2024-09-16T23:00:00+02:00","France"
"FR","ANGERS","APPENTIS",47.4473900001666,-0.550066999621058,"O3","eea","µg/m³",64.2,"2024-09-16T23:00:00+02:00","France"
"FR","VIEUX-THANN","Vieux Thann 3",47.8022100001691,7.12284400018035,"SO2","eea","µg/m³",1.3,"2024-09-16T23:00:00+02:00","France"
"FR","ÉPERNAY","Rempart Perrier",49.0460999999616,3.95591099960915,"PM2.5","eea","µg/m³",8.6,"2024-09-16T08:00:00+02:00","France"
"FR","HONFLEUR","Honfleur Sce Tech.",49.4151080002733,0.24369999994322,"SO2","eea","µg/m³",0.9,"2024-09-16T14:00:00+02:00","France"
"FR","GONFREVILLE-L'ORCHER","Gonfreville l Orcher",49.50273000006,0.232485999671531,"CO","eea","µg/m³",343,"2024-03-11T10:00:00+01:00","France"
"FR","POITIERS","Poitiers-Le Nain",46.591232000116,0.340390000259412,"NO","eea","µg/m³",34.2,"2024-03-11T10:00:00+01:00","France"
"FR","APT","APT",43.8801200000807,5.36203800023192,"O3","eea","µg/m³",68.3,"2024-09-16T14:00:00+02:00","France"
"FR","POITIERS","Poitiers Centre  Augouard",46.5839999999289,0.34558200029356,"CO","eea","µg/m³",289,"2024-03-11T10:00:00+01:00","France"
"FR","HAYANGE","HAYANGE-MARSPICH",49.3374000000503,6.08207000027807,"NO2","eea","µg/m³",12,"2019-07-29T11:00:00+02:00","France"
"FR","LE TAMPON","Station Bourg-Murat",-21.2048149996145,55.5826200003951,"O3","eea","µg/m³",70.7,"2024-09-16T08:00:00+02:00","France"
"FR","SAINT-PAUL","Chaussée Royale",-20.9985769999371,55.2806199996725,"NO2","eea","µg/m³",18.88,"2017-07-17T11:00:00+02:00","France"
"FR","COLMAR","Colmar Centre",48.074642000044,7.35066699972224,"NO2","eea","µg/m³",18.4,"2024-07-30T13:00:00+02:00","France"
"FR","LISIEUX","Lisieux",49.1472239999556,0.227221999667361,"NO","eea","µg/m³",10.5,"2024-03-11T10:00:00+01:00","France"
"FR","ATMO OCCITANIE","NET-FR068A",42.6958,2.8997,"NO2","EEA France","µg/m³",12.4,"2024-03-04T08:00:00+01:00","France"
"FR","ATMO OCCITANIE","NET-FR068A",43.928055,2.146111,"NO2","EEA France","µg/m³",17.7,"2024-03-04T08:00:00+01:00","France"
"FR","ATMO OCCITANIE","NET-FR068A",43.575558,1.418611,"O3","EEA France","µg/m³",3.3,"2024-03-04T08:00:00+01:00","France"
"FR","ATMO OCCITANIE","NET-FR068A",43.609974,3.898611,"PM10","EEA France","µg/m³",11.8,"2024-03-04T08:00:00+01:00","France"
"FR","ATMO NOUVELLE-AQUITAINE","NET-FR058A",43.37611,-0.536944,"SO2","EEA France","µg/m³",-0.1,"2024-03-04T08:00:00+01:00","France"
"FR","ATMO NOUVELLE-AQUITAINE","NET-FR058A",44.900276,-0.514722,"NO2","EEA France","µg/m³",37.5,"2024-03-04T08:00:00+01:00","France"
"FR","ATMO OCCITANIE","NET-FR068A",43.556946,1.406389,"PM10","EEA France","µg/m³",15.4,"2024-03-04T07:00:00+01:00","France"
"FR","Bouches-du-Rhône","FR02041",43.6389642135529,5.09999637937892,"NO","EEA France","µg/m³",1.3,"2024-01-29T18:00:00+01:00","France"
"FR","Nièvre","FR26012",47.2750173101874,4.09832992182145,"O3","EEA France","µg/m³",65.6,"2024-01-29T18:00:00+01:00","France"
"FR","Nièvre","FR26012",47.2750173101874,4.09832992182145,"NO","EEA France","µg/m³",0.1,"2024-01-29T18:00:00+01:00","France"
"FR","Bouches-du-Rhône","FR03048",43.5557572024514,5.4618018432109,"O3","EEA France","µg/m³",49,"2024-01-29T18:00:00+01:00","France"
"FR","Seine-et-Marne","FR04173",48.8055412818308,3.08444637639995,"PM10","EEA France","µg/m³",28.3,"2024-01-29T18:00:00+01:00","France"
"FR","Alpes-Maritimes","FR24007",43.5997495987433,7.094723434072,"NO2","EEA France","µg/m³",33.7,"2024-01-29T18:00:00+01:00","France"
"FR","Côte-d'Or","FR26014",47.340253323593,5.05833251650146,"NO","EEA France","µg/m³",67.8,"2024-01-29T18:00:00+01:00","France"
"FR","Bouches-du-Rhône","FR03014",43.3480529322015,5.36065154221904,"PM2.5","EEA France","µg/m³",15.3,"2024-01-29T18:00:00+01:00","France"
"FR","Nord","FR11007",50.6408018273658,3.07477152078998,"NO2","EEA France","µg/m³",44.8,"2024-01-12T11:00:00+01:00","France"
"FR","Rhône","FR20046",45.7789106049275,4.92469913483583,"PM10","EEA France","µg/m³",13.7,"2022-05-02T14:00:00+02:00","France"
"FR","Reunion","FR38008",-20.8847369878067,55.4538109724538,"NO","EEA France","µg/m³",2,"2023-12-31T21:00:00+01:00","France"
"FR","","FR20019",45.7583572550156,4.88621530806415,"PM10","EEA France","µg/m³",23.1,"2021-12-21T07:00:00+01:00","France"
"FR","","FR12045",43.0949969994643,-0.051944,"NO2","EEA France","µg/m³",5.9,"2020-06-10T09:00:00+02:00","France"
"FR","","FR01022",49.1311139994689,6.207225,"SO2","EEA France","µg/m³",2.7,"2020-03-24T11:00:00+01:00","France"
"FR","","FR30038",48.5492988706458,5.46068793225859,"SO2","EEA France","µg/m³",1.2,"2019-05-02T13:00:00+02:00","France"
"FR","","FR31032",44.1922219994633,0.623889,"PM10","EEA France","µg/m³",16,"2018-12-27T08:00:00+01:00","France"
"FR","","FR34018",47.9979809994662,2.720156,"NO2","EEA France","µg/m³",3.35,"2018-04-25T02:00:00+02:00","France"
"FR","","FR06007",50.2783359994725,3.973611,"NO2","EEA France","µg/m³",10.2,"2018-04-25T02:00:00+02:00","France"
"FR","","FR20061",45.9863829994635,4.719281,"NO2","EEA France","µg/m³",24.33,"2017-12-18T22:00:00+01:00","France"
"FR","","Marignane Ville",43.4197376712764,5.21277986330012,"CO","EEA France","µg/m³",200,"2017-07-18T22:00:00+02:00","France"
"FR","","Vannes Roscanvec",47.6566951743188,-2.75819623151342,"NO2","EEA France","µg/m³",24.85,"2017-05-31T09:00:00+02:00","France"
"FR","","Home",45.271894982689,5.6790270589692,"PM2.5","airgradient","µg/m³",1.965773811,"2024-09-19T10:00:00+02:00","France"
"FR","MARMANDE","MARMANDE",44.5087799997058,0.142694999651937,"PM2.5","eea","µg/m³",2,"2024-09-16T08:00:00+02:00","France"
"FR","SAINT-MALO","StMalo Rocabey",48.6530599999378,-2.00267999980351,"NO","eea","µg/m³",6.9,"2024-03-11T10:00:00+01:00","France"
"FR","BESANÇON","Besançon Prévoyance",47.2474000000455,6.01541900010615,"PM2.5","eea","µg/m³",2.6,"2024-09-16T08:00:00+02:00","France"
"FR","CHAMPFORGEUIL","Champforgueil",46.8210560001565,4.83508299997113,"NO2","eea","µg/m³",17.2,"2024-09-18T23:00:00+02:00","France"
"FR","VAL-DE-REUIL","Base loisirs Poses",49.3048700002814,1.2143670002142,"PM2.5","eea","µg/m³",30,"2024-09-18T23:00:00+02:00","France"
"FR","SAINT-LÔ","Saint-Lô Eglise",49.1163900000927,-1.08472200006952,"NO2","eea","µg/m³",10.4,"2024-09-18T23:00:00+02:00","France"
"FR","MATOURY","Kalou",4.84815999961769,-52.3238000002777,"SO2","eea","µg/m³",5.98,"2018-04-05T14:00:00+02:00","France"
"FR","CERISÉ","Alençon Météo-France",48.4455530000175,0.110832999792571,"NO","eea","µg/m³",38.1,"2024-03-11T08:00:00+01:00","France"
"FR","CERISÉ","Alençon Météo-France",48.4455530000175,0.110832999792571,"NO2","eea","µg/m³",6,"2024-09-18T23:00:00+02:00","France"
"FR","ALBERTVILLE","Albertville",45.6750000001249,6.38972200044397,"PM10","eea","µg/m³",10.5,"2024-09-18T23:00:00+02:00","France"
"FR","CHALON-SUR-SAÔNE","Chalon Centre Ville",46.7823099997673,4.84732200043988,"NO","eea","µg/m³",12.8,"2024-03-11T10:00:00+01:00","France"
"FR","MONTARGIS","Montargis Les Cites",48.0014499999424,2.72617999990292,"O3","eea","µg/m³",64.5,"2024-09-18T23:00:00+02:00","France"
"FR","LA MULATIÈRE","A7 SUD LYONNAIS",45.7200240000445,4.8181560001567,"NO","eea","µg/m³",75.3,"2024-03-11T10:00:00+01:00","France"
"FR","MÂCON","Macon Paul Bert",46.3161740002279,4.83999399979789,"NO2","eea","µg/m³",18.9,"2024-09-18T23:00:00+02:00","France"
"FR","MÂCON","Macon Paul Bert",46.3161740002279,4.83999399979789,"PM2.5","eea","µg/m³",4,"2024-09-16T08:00:00+02:00","France"
"FR","BLOIS","Blois nord",47.5942569998293,1.30266699988141,"PM2.5","eea","µg/m³",14.2,"2024-09-18T23:00:00+02:00","France"
"FR","SAINT-MICHEL-L'OBSERVATOIRE","Obs Haute-Provence",43.9334750001492,5.71180900010387,"PM10","eea","µg/m³",8.2,"2024-09-18T23:00:00+02:00","France"
"FR","BREST","Brest Desmoulins",48.3974600000795,-4.48870999983224,"NO","eea","µg/m³",32.2,"2024-03-11T10:00:00+01:00","France"
"FR","BREST","Brest Desmoulins",48.3974600000795,-4.48870999983224,"NO2","eea","µg/m³",12.2,"2024-09-18T23:00:00+02:00","France"
"FR","MULHOUSE","Mulhouse-Briand",47.747684000262,7.32136400007003,"NO","eea","µg/m³",48.2,"2024-03-11T09:00:00+01:00","France"
"FR","MULHOUSE","Mulhouse-Briand",47.747684000262,7.32136400007003,"CO","eea","µg/m³",387,"2024-03-11T09:00:00+01:00","France"
"FR","BREST","Brest Mace",48.3861799998886,-4.48660000006197,"PM2.5","eea","µg/m³",23.8,"2024-09-18T23:00:00+02:00","France"
"FR","PÉRIGUEUX","PERIGUEUX",45.1898229998141,0.72718400006274,"O3","eea","µg/m³",63.1,"2024-09-18T23:00:00+02:00","France"
"FR","ÉVREUX","Evreux Centre",49.0213399997733,1.14831899956664,"NO2","eea","µg/m³",8.2,"2024-09-18T23:00:00+02:00","France"
"FR","XONRUPT-LONGEMER","Schlucht",48.0511169998905,7.01111400023723,"SO2","eea","µg/m³",1,"2019-08-09T12:00:00+02:00","France"
"FR","STRASBOURG","Strasbourg A35 Remparts",48.5880550000064,7.72972199987815,"NO","eea","µg/m³",9.8,"2024-03-11T09:00:00+01:00","France"
"FR","SALAISE-SUR-SANNE","A7 Salaise Ouest",45.3440779998565,4.80748099983527,"PM10","eea","µg/m³",8.3,"2024-09-16T08:00:00+02:00","France"
"FR","SALAISE-SUR-SANNE","A7 Salaise Ouest",45.3440779998565,4.80748099983527,"PM2.5","eea","µg/m³",6.3,"2024-09-12T09:00:00+02:00","France"
"FR","DIJON","Dijon Péjoces",47.3073699998269,5.06588099964679,"NO","eea","µg/m³",40,"2024-03-11T10:00:00+01:00","France"
"FR","LE PETIT-QUEVILLY","Petit-Quevilly Sud 3",49.4341620000421,1.06705269987794,"PM10","eea","µg/m³",61.1,"2024-09-18T23:00:00+02:00","France"
"FR","MONT","LAGOR",43.4098600000143,-0.673154999775906,"SO2","eea","µg/m³",69.4,"2024-09-18T23:00:00+02:00","France"
"FR","CHERBOURG-EN-COTENTIN","Cherbourg Hotel de Ville",49.6422500002307,-1.62436100013966,"NO2","eea","µg/m³",28.3,"2024-09-18T23:00:00+02:00","France"
"FR","DREUX","Dreux Centre",48.7296940002108,1.35847200002767,"NO2","eea","µg/m³",7.8,"2024-09-18T23:00:00+02:00","France"
"FR","CAEN","Caen Chemin-Vert",49.1922200000328,-0.391111000326555,"NO","eea","µg/m³",5.2,"2024-03-11T10:00:00+01:00","France"
"FR","DOUAI","Douai Theuriet",50.378220000192,3.06585999960954,"PM10","eea","µg/m³",12.5,"2024-09-17T23:00:00+02:00","France"
"FR","GENNEVILLIERS","GENNEVILLIERS",48.9303199998812,2.2943499999861,"NO2","eea","µg/m³",12.9,"2024-09-17T23:00:00+02:00","France"
"FR","AUBAGNE","AUBAGNE LES PASSONS",43.2931370001245,5.57418400028735,"O3","eea","µg/m³",63.9,"2024-09-17T23:00:00+02:00","France"
"FR","MARSEILLE 15E ARRONDISSEMENT","MARSEILLE ST LOUIS",43.3480499997511,5.36011900025736,"PM10","eea","µg/m³",5.8,"2024-09-17T23:00:00+02:00","France"
"FR","VALENCIENNES","Valenciennes Wallon",50.3642500001959,3.52272999998034,"CO","eea","µg/m³",306.7,"2017-05-30T12:00:00+02:00","France"
"FR","ARGENTEUIL","ARGENTEUIL",48.9513899998373,2.22361099961982,"NO","eea","µg/m³",8.6,"2024-03-11T10:00:00+01:00","France"
"FR","MAUBEUGE","Maubeuge Joyeuse",50.2793599998152,3.97690999972442,"NO","eea","µg/m³",1.8,"2024-03-11T10:00:00+01:00","France"
"FR","MANTES-LA-JOLIE","MANTES-LA-JOLIE",48.9963999999874,1.70330000028582,"NO2","eea","µg/m³",10.7,"2024-09-17T23:00:00+02:00","France"
"FR","TROYES","Troyes La Tour",48.3016660002666,4.07694400024531,"NO2","eea","µg/m³",5.7,"2024-09-16T23:00:00+02:00","France"
"FR","CREIL","Faiencerie Creil",49.2595520002579,2.4743970003557,"PM2.5","eea","µg/m³",4.6,"2024-09-16T23:00:00+02:00","France"
"FR","ANGERS","ROI RENE",47.4669900000394,-0.554686000268078,"NO","eea","µg/m³",15.4,"2024-03-11T07:00:00+01:00","France"
"FR","SAINT-DIZIER","St DIZIER L. Michel",48.6458359997777,4.96611099961485,"NO","eea","µg/m³",7.7,"2024-03-11T09:00:00+01:00","France"
"FR","CHÂLONS-EN-CHAMPAGNE","CHALONS",48.9622229999545,4.36000000037125,"PM10","eea","µg/m³",10.4,"2024-09-16T08:00:00+02:00","France"
"FR","SAINT-QUENTIN","P. Roth St Quentin",49.8513340002108,3.28400000031342,"NO","eea","µg/m³",3.8,"2024-03-11T10:00:00+01:00","France"
"FR","AVIGNON","Avignon Rocade De Gaulle",43.9314000002095,4.82687499979534,"PM10","eea","µg/m³",14.9,"2024-09-16T08:00:00+02:00","France"
"FR","GONFREVILLE-L'ORCHER","Gonfreville l Orcher",49.50273000006,0.232485999671531,"NO","eea","µg/m³",0.9,"2024-03-11T08:00:00+01:00","France"
"FR","PORT-JÉRÔME-SUR-SEINE","NDGravenchon Pasteur",49.4933319998027,0.571853000282018,"PM10","eea","µg/m³",8.8,"2024-09-16T14:00:00+02:00","France"
"FR","VICHY","Vichy",46.1304319997242,3.42569400005774,"PM2.5","eea","µg/m³",7.4,"2024-09-16T14:00:00+02:00","France"
"FR","NIORT","Niort - Tassigny",46.3338800001563,-0.47187800021067,"PM10","eea","µg/m³",21.8,"2024-09-16T08:00:00+02:00","France"
"FR","RIOM","Riom Périurbaine",45.896739999897,3.12225399993477,"PM10","eea","µg/m³",15.2,"2024-09-16T14:00:00+02:00","France"
"FR","VILLIERS-EN-BOIS","Zoodyssée Chizé",46.1432340000161,-0.395913000373364,"NO","eea","µg/m³",1,"2024-03-11T10:00:00+01:00","France"
"FR","NÎMES","Nimes Gauzy",43.8344000002437,4.37439999976558,"NO","eea","µg/m³",2.9,"2024-03-11T10:00:00+01:00","France"
"FR","HARFLEUR","Harfleur Ecole Coty",49.5049999997747,0.20169400021507,"SO2","eea","µg/m³",0.9,"2024-09-16T14:00:00+02:00","France"
"FR","MONTPELLIER","Montpellier Chaptal",43.6112999997581,3.86626000022995,"NO2","eea","µg/m³",16.7,"2024-09-16T14:00:00+02:00","France"
"FR","NIORT","Niort Venise",46.3200260002481,-0.482860999605362,"PM10","eea","µg/m³",9.5,"2024-09-16T14:00:00+02:00","France"
"FR","NOTRE-DAME-DE-BLIQUETUIT","Maison Parc Brotonne",49.4982950002272,0.758833000385088,"NO","eea","µg/m³",10.1,"2024-03-11T10:00:00+01:00","France"
"FR","SAINT-DENIS","LYC. LISLET GEOFFROY",-20.8898930003724,55.4688400000578,"PM10","eea","µg/m³",7.3,"2024-09-16T14:00:00+02:00","France"
"FR","POITIERS","Poitiers Centre  Augouard",46.5839999999289,0.34558200029356,"PM2.5","eea","µg/m³",7.3,"2024-09-16T14:00:00+02:00","France"
"FR","AIRVAULT","AIRVAULT - Stade Laillé",46.8237950001734,-0.135633999871946,"NO2","eea","µg/m³",3.2,"2024-09-16T14:00:00+02:00","France"
"FR","LE TAMPON","Station Bourg-Murat",-21.2048149996145,55.5826200003951,"PM10","eea","µg/m³",2.3,"2024-09-16T08:00:00+02:00","France"
"FR","ATMO OCCITANIE","NET-FR068A",43.609974,3.898611,"NO2","EEA France","µg/m³",427.8,"2023-04-26T10:00:00+02:00","France"
"FR","ATMO NOUVELLE-AQUITAINE","NET-FR058A",46.17,1.87,"NO","EEA France","µg/m³",83.6,"2024-03-04T08:00:00+01:00","France"
"FR","ATMO OCCITANIE","NET-FR068A",43.287758,3.504831,"O3","EEA France","µg/m³",61.5,"2024-03-04T08:00:00+01:00","France"
"FR","ATMO OCCITANIE","NET-FR068A",43.58722,1.443889,"O3","EEA France","µg/m³",37,"2024-03-04T08:00:00+01:00","France"
"FR","ATMO NOUVELLE-AQUITAINE","NET-FR058A",43.37611,-0.536944,"O3","EEA France","µg/m³",16.3,"2024-03-04T08:00:00+01:00","France"
"FR","Côte-d'Or","FR26005",47.3080413032157,5.06611192686193,"PM10","EEA France","µg/m³",19,"2024-01-29T17:00:00+01:00","France"
"FR","Vaucluse","FR03080",43.9497553662994,4.80507947160248,"NO2","EEA France","µg/m³",22,"2024-01-29T18:00:00+01:00","France"
"FR","Nièvre","FR26017",46.9966666387206,3.17083735727372,"PM2.5","EEA France","µg/m³",13.3,"2024-01-29T18:00:00+01:00","France"
"FR","Bouches-du-Rhône","FR02022",43.6755544389705,4.62861441719004,"PM10","EEA France","µg/m³",27.7,"2024-01-29T18:00:00+01:00","France"
"FR","Saône-et-Loire","FR32005",46.6666401423631,4.36666568034079,"PM2.5","EEA France","µg/m³",8.1,"2024-01-29T17:00:00+01:00","France"
"FR","Saône-et-Loire","FR32001",46.7824722190452,4.84726435734473,"PM10","EEA France","µg/m³",-0.2,"2024-01-08T11:00:00+01:00","France"
"FR","Alpes-de-Haute-Provence","FR24039",43.9335199525261,5.71170417210011,"O3","EEA France","µg/m³",85.8,"2024-01-29T18:00:00+01:00","France"
"FR","Ille-et-Vilaine","FR19002",48.1086536280958,-1.66576399764851,"NO2","EEA France","µg/m³",27.7,"2024-01-29T18:00:00+01:00","France"
"FR","Finistère","FR19014",48.3996394541087,-4.46723207639797,"NO","EEA France","µg/m³",7.4,"2024-01-29T17:00:00+01:00","France"
"FR","Bouches-du-Rhône","FR02020",43.510559975903,5.21972384044637,"O3","EEA France","µg/m³",70.2,"2023-04-17T13:00:00+02:00","France"
"FR","Landes","FR31036",43.7047196490079,-1.03861416519331,"NO2","EEA France","µg/m³",8,"2023-10-12T10:00:00+02:00","France"
"FR","Landes","FR31041",43.8960516305414,-0.490616689052445,"NO2","EEA France","µg/m³",12.9,"2023-06-01T09:00:00+02:00","France"
"FR","Landes","FR31041",43.8960516305414,-0.490616689052445,"PM2.5","EEA France","µg/m³",3,"2023-06-01T08:00:00+02:00","France"
"FR","","FR21060",49.117192768241,-0.169665706026938,"PM10","EEA France","µg/m³",15.7,"2022-12-12T09:00:00+01:00","France"
"FR","","FR01022",49.1311139994689,6.207225,"PM10","EEA France","µg/m³",0,"2020-03-24T13:00:00+01:00","France"
"FR","","FR27008",45.3531859994632,4.804822,"PM2.5","EEA France","µg/m³",10.6,"2019-12-09T01:00:00+01:00","France"
"FR","","FR12056",44.1061895923754,3.07217538961888,"O3","EEA France","µg/m³",51.3,"2019-02-12T01:00:00+01:00","France"
"FR","","Cambrai Gambetta",50.1724794592506,3.23606403005364,"PM2.5","EEA France","µg/m³",4.6,"2018-12-10T10:00:00+01:00","France"
"FR","","FR39014",14.6661999997358,-61.1501,"O3","EEA France","µg/m³",44.38,"2018-04-25T06:00:00+02:00","France"
"FR","","FR34051",46.7983329994643,1.693819,"NO2","EEA France","µg/m³",2.35,"2018-04-25T02:00:00+02:00","France"
"FR","","FR06006",50.3647189994728,3.523611,"PM10","EEA France","µg/m³",9.18,"2018-04-25T02:00:00+02:00","France"
"FR","","FR11025",50.6294439994737,3.090833,"NO2","EEA France","µg/m³",6.8,"2018-04-25T02:00:00+02:00","France"
"FR","","Lens Stade J. Moulin",50.436809254151,2.82668378877469,"NO2","EEA France","µg/m³",33.48,"2017-07-18T22:00:00+02:00","France"
"FR","","SMVO Rieux",49.2978953606785,2.51744773536939,"NO2","EEA France","µg/m³",10.93,"2017-03-28T18:00:00+02:00","France"
"FR","LES ABYMES","ABYMES RN1",16.2540859998526,-61.5371300001843,"NO2","eea","µg/m³",17.8,"2024-09-18T23:00:00+02:00","France"
"FR","VERNEUIL","Verneuil",46.8146930000512,2.61006899986248,"NO2","eea","µg/m³",2.2,"2024-09-18T23:00:00+02:00","France"
"FR","ROUEN","Rouen Proxi Quai de Paris",49.4366999998995,1.09883799978172,"PM10","eea","µg/m³",12.5,"2024-09-16T08:00:00+02:00","France"
"FR","PERPIGNAN","Perpignan bd Pyrénées",42.6958700001418,2.88848299977518,"NO","eea","µg/m³",43.4,"2024-03-11T10:00:00+01:00","France"
"FR","BESANÇON","Besançon Prévoyance",47.2474000000455,6.01541900010615,"NO2","eea","µg/m³",25.8,"2024-09-18T23:00:00+02:00","France"
"FR","MIRIBEL","COTIERE AIN",45.8232230002939,4.95395800025814,"NO2","eea","µg/m³",4.4,"2024-09-18T23:00:00+02:00","France"
"FR","BILLÈRE","BILLERE",43.3108000001887,-0.391543000146688,"NO2","eea","µg/m³",20.3,"2024-09-18T23:00:00+02:00","France"
"FR","FEYZIN","FEYZIN STADE",45.6638999998941,4.84589999968447,"SO2","eea","µg/m³",2.4,"2024-09-18T23:00:00+02:00","France"
"FR","LE ROBERT","Robert Bourg",14.6780249995922,-60.9390559996157,"O3","eea","µg/m³",21.5,"2024-09-18T23:00:00+02:00","France"
"FR","LE LAMENTIN","Lamentin",14.6106530003893,-61.002586000064,"PM2.5","eea","µg/m³",8.4,"2024-09-18T23:00:00+02:00","France"
"FR","NICE","NICE ARSON",43.7020760000666,7.28625599991525,"PM2.5","eea","µg/m³",4.6,"2024-09-18T23:00:00+02:00","France"
"FR","MÂCON","Macon Paul Bert",46.3161740002279,4.83999399979789,"NO","eea","µg/m³",4.1,"2024-03-11T10:00:00+01:00","France"
"FR","BLOIS","Blois nord",47.5942569998293,1.30266699988141,"PM10","eea","µg/m³",24,"2024-09-18T23:00:00+02:00","France"
"FR","SAINT-MICHEL-L'OBSERVATOIRE","Obs Haute-Provence",43.9334750001492,5.71180900010387,"PM2.5","eea","µg/m³",5.5,"2024-09-18T23:00:00+02:00","France"
"FR","CHERBOURG-EN-COTENTIN","Cherbourg PMF",49.6338900002764,-1.62472220013899,"PM10","eea","µg/m³",7.1,"2024-09-12T09:00:00+02:00","France"
"FR","ORLÉANS","La_Source-CNRS",47.8377500002934,1.9446669999777,"PM2.5","eea","µg/m³",16.4,"2024-09-18T23:00:00+02:00","France"
"FR","VILLEFRANCHE-SUR-SAÔNE","Villefranche Centre",45.9901120000703,4.71556599980171,"NO","eea","µg/m³",19.1,"2024-03-11T10:00:00+01:00","France"
"FR","GAP","GAP COMMANDERIE",44.5551950001672,6.07301500018045,"PM2.5","eea","µg/m³",10.3,"2024-09-16T08:00:00+02:00","France"
"FR","GAP","GAP COMMANDERIE",44.5551950001672,6.07301500018045,"NO","eea","µg/m³",2.9,"2024-03-11T10:00:00+01:00","France"
"FR","SAINT-JEAN-DE-MAURIENNE","SAINT JEAN",45.2747230002974,6.3497219998307,"NO","eea","µg/m³",4.3,"2024-03-11T10:00:00+01:00","France"
"FR","TAVAUX","Tavaux",47.0426099999585,5.40089700029717,"NO2","eea","µg/m³",10,"2024-09-18T23:00:00+02:00","France"
"FR","SALAISE-SUR-SANNE","A7 Salaise Ouest",45.3440779998565,4.80748099983527,"NO2","eea","µg/m³",46,"2024-09-18T23:00:00+02:00","France"
"FR","BIARRITZ","Biarritz-hippodrome",43.4702379999568,-1.55387600021659,"NO2","eea","µg/m³",16.3,"2024-09-18T23:00:00+02:00","France"
"FR","OYSONVILLE","Oysonville",48.3911400000797,1.95561099991264,"SO2","eea","µg/m³",0.7,"2024-09-18T23:00:00+02:00","France"
"FR","BOURG-EN-BRESSE","Bourg-en-Bresse",46.2116659998982,5.22638900029136,"NO2","eea","µg/m³",37.4,"2024-09-18T23:00:00+02:00","France"
"FR","LORIENT","Lorient B. Bissonnet",47.7424999999031,-3.395009999658,"NO","eea","µg/m³",5.4,"2024-03-11T10:00:00+01:00","France"
"FR","MANOSQUE","MANOSQUE",43.835784999887,5.78613100015114,"O3","eea","µg/m³",67.5,"2024-09-18T23:00:00+02:00","France"
"FR","MANOSQUE","MANOSQUE",43.835784999887,5.78613100015114,"NO2","eea","µg/m³",9.6,"2024-09-18T23:00:00+02:00","France"
"FR","FLOIRAC","Floirac Branne",44.8434099998198,-0.506979999619349,"NO2","eea","µg/m³",74,"2024-09-18T23:00:00+02:00","France"
"FR","PUSIGNAN","SAINT EXUPERY",45.7532999996927,5.07219999998525,"NO2","eea","µg/m³",9.2,"2024-09-18T23:00:00+02:00","France"
"FR","PUSIGNAN","SAINT EXUPERY",45.7532999996927,5.07219999998525,"O3","eea","µg/m³",30.9,"2024-09-18T23:00:00+02:00","France"
"FR","DENAIN","Denain Villars",50.3227600000871,3.39593000027307,"PM10","eea","µg/m³",15.8,"2024-09-17T23:00:00+02:00","France"
"FR","DENAIN","Denain Villars",50.3227600000871,3.39593000027307,"PM2.5","eea","µg/m³",7.6,"2024-09-17T23:00:00+02:00","France"
"FR","PARIS 1ER ARRONDISSEMENT","PARIS 1er Les Halles",48.8621199998727,2.34461599976858,"CO","eea","µg/m³",287,"2024-03-11T10:00:00+01:00","France"
"FR","FONTAINEBLEAU","Zone Rurale SE",48.3547000001938,2.6453000000409,"PM2.5","eea","µg/m³",7,"2024-09-16T08:00:00+02:00","France"
"FR","RAMBOUILLET","RAMBOUILLET",48.6337299998935,1.83052900033848,"O3","eea","µg/m³",77.3,"2024-09-17T23:00:00+02:00","France"
"FR","FRÉJUS","ESTEREL",43.4378739998896,6.76839000008727,"NO2","eea","µg/m³",7.3,"2024-09-17T23:00:00+02:00","France"
"FR","AIX-EN-PROVENCE","AIX CENTRE ECOLE ART",43.5302849996847,5.44091200008074,"NO2","eea","µg/m³",4.9,"2024-09-17T23:00:00+02:00","France"
"FR","ATTON","Atton",48.8863869997662,6.09361099988959,"PM10","eea","µg/m³",1.4,"2019-08-22T09:00:00+02:00","France"
"FR","STRASBOURG","Strasbourg Neudorf Ecoquartier Danube",48.5728069998645,7.76783299975578,"PM2.5","eea","µg/m³",21.2,"2024-09-17T23:00:00+02:00","France"
"FR","BOIS-HERPIN","Zone rurale Sud",48.3641660000587,2.2369439998826,"O3","eea","µg/m³",68.4,"2024-09-17T23:00:00+02:00","France"
"FR","POINTE-À-PITRE","PTP-VICTOIRE",16.2367399997,-61.534099999799,"O3","eea","µg/m³",11,"2024-09-17T23:00:00+02:00","France"
"FR","SAINT-DENIS","Auto A1 -Saint-Denis",48.9252779998288,2.35666699991635,"NO","eea","µg/m³",110.9,"2024-03-11T10:00:00+01:00","France"
"FR","TROYES","Troyes La Tour",48.3016660002666,4.07694400024531,"NO","eea","µg/m³",21.2,"2024-03-11T09:00:00+01:00","France"
"FR","HALLUIN","Halluin stade",50.7754819998265,3.12568000015524,"O3","eea","µg/m³",52.6,"2024-09-16T23:00:00+02:00","France"
"FR","NANTES","LA CHAUVINIERE",47.252776999898,-1.57333299992586,"NO","eea","µg/m³",13.8,"2024-03-11T09:00:00+01:00","France"
"FR","CREIL","Faiencerie Creil",49.2595520002579,2.4743970003557,"NO","eea","µg/m³",10.6,"2024-03-11T09:00:00+01:00","France"
"FR","REIMS","Jean d Aulan",49.2241669997297,4.02055599976787,"NO","eea","µg/m³",12.5,"2024-03-11T09:00:00+01:00","France"
"FR","TOULOUSE","Toulouse Mazades",43.6236080001413,1.43853099990713,"NO2","eea","µg/m³",4.2,"2021-05-17T05:00:00+02:00","France"
"FR","GRENOBLE","Grenoble Les Frenes",45.1619000003116,5.7356000000548,"SO2","eea","µg/m³",8.6,"2024-09-16T23:00:00+02:00","France"
"FR","TRIGNAC","JULES VERNE",47.3157270003001,-2.19076399974636,"NO","eea","µg/m³",1.6,"2024-03-11T07:00:00+01:00","France"
"FR","TOULOUSE","ECOLE M.JACQUIER",43.5756949998691,1.41806400006942,"PM10","eea","µg/m³",11,"2024-09-16T23:00:00+02:00","France"
